# Time (s),Vertical acceleration (m/s²),Lateral acceleration (m/s²),Roll rate (rad/s),Pitch rate (rad/s),Yaw rate (rad/s),Air temperature (°C),Air pressure (mbar)
# Event IGNITION occurred at t=0 seconds
# Event LAUNCH occurred at t=0 seconds
0.002,-3.9147168,0.2737437,0,0,0,5.9780001,857.4736005
0.004,7.7443816,0.5415399,0,0,0,5.9779999,857.473598
0.006,19.4048444,1.3569189,0,0,0,5.9779994,857.4735906
0.008,31.0666709,2.1723933,0,0,0,5.9779983,857.4735724
0.01,42.7298604,2.9879629,0,0,0,5.9779963,857.4735386
0.012,54.394412,3.8036278,0,0,0,5.9779929,857.473484
0.014,66.0603236,4.6193878,0,0,0,5.977988,857.4734039
0.016,77.7275925,5.4352427,0,0,0,5.9779813,857.4732931
0.018,89.3962147,6.2511923,0,0,0,5.9779723,857.4731469
0.02,101.0661851,7.0672361,0,0,0,5.9779609,857.4729601
0.022,111.1987294,7.7757726,0,0,0,5.9779467,857.4727281
0.024,112.0830027,7.8376071,0,0,0,5.9779297,857.4724486
0.026,111.4250246,7.7915967,0,0,0,5.9779097,857.4721216
0.028,110.7668754,7.7455745,0,0,0,5.9778868,857.4717474
# Event LIFTOFF occurred at t=0.03 seconds
0.03,110.1085546,7.6995402,0,0,0,5.9778611,857.4713261
0.032,109.4500618,7.6534939,0,0,0,5.9778325,857.4708581
0.034,108.7913971,7.6074356,0,0,0,5.977801,857.4703437
0.036,108.1325604,7.5613652,0,0,0,5.9777668,857.4697832
0.038,107.4735521,7.5152829,0,0,0,5.9777297,857.4691768
0.04,106.8143725,7.4691885,0,0,0,5.9776899,857.4685248
0.042,106.1550221,7.4230823,0,0,0,5.9776473,857.4678275
0.044,105.4955012,7.3769641,0,0,0,5.9776019,857.4670852
0.046,104.8358106,7.330834,0,0,0,5.9775538,857.4662981
0.048,104.1759508,7.2846921,0,0,0,5.977503,857.4654666
0.05,103.5916213,7.2438318,0,0,0,5.9774495,857.4645909
0.052,103.4629299,7.2348328,0,0,0,5.9773933,857.4636711
0.054,103.4102139,7.2311466,0,0,0,5.9773344,857.4627073
0.056,103.3574656,7.2274581,0,0,0,5.9772728,857.4616995
0.058,103.3046853,7.2237673,0,0,0,5.9772086,857.4606478
0.06,103.2518735,7.2200743,0,0,0,5.9771416,857.4595521
0.062,103.1990306,7.2163792,0,0,0,5.977072,857.4584126
0.064,103.146157,7.2126819,0,0,0,5.9769996,857.4572291
0.066,103.0932531,7.2089825,0,0,0,5.9769246,857.4560017
0.068,103.0403193,7.205281,0,0,0,5.976847,857.4547305
0.07,102.9873562,7.2015775,0,0,0,5.9767666,857.4534155
0.072,102.934364,7.1978719,0,0,0,5.9766836,857.4520566
0.074,102.8813432,7.1941643,0,0,0,5.9765979,857.450654
0.076,102.8282942,7.1904548,0,0,0,5.9765095,857.4492076
0.078,102.7752174,7.1867433,0,0,0,5.9764184,857.4477175
0.08,102.7221131,7.1830299,0,0,0,5.9763247,857.4461836
0.082,102.6689817,7.1793146,0,0,0,5.9762283,857.4446061
0.084,102.6158237,7.1755974,0,0,0,5.9761292,857.4429849
0.086,102.5626392,7.1718784,0,0,0,5.9760275,857.44132
0.088,102.5094288,7.1681575,0,0,0,5.9759231,857.4396116
0.09,102.4561926,7.1644349,0,0,0,5.975816,857.4378595
0.092,102.402931,7.1607105,0,0,0,5.9757063,857.4360638
0.094,102.3496443,7.1569843,0,0,0,5.9755939,857.4342246
0.096,102.2963329,7.1532564,0,0,0,5.9754789,857.4323418
0.098,102.2429968,7.1495268,0,0,0,5.9753612,857.4304156
0.1,102.1896366,7.1457955,0,0,0,5.9752408,857.4284458
0.102,102.1362523,7.1420625,0,0,0,5.9751178,857.4264326
0.104,102.0828442,7.1383279,0,0,0,5.9749921,857.4243759
0.106,102.0294127,7.1345916,0,0,0,5.9748638,857.4222759
0.108,101.9759579,7.1308536,0,0,0,5.9747328,857.4201324
0.11,101.92248,7.1271141,0,0,0,5.9745992,857.4179455
0.112,101.8828799,7.124345,0,0,0,5.9744629,857.4157153
0.114,101.9261382,7.1273699,0,0,0,5.9743239,857.4134417
0.116,101.9831909,7.1313594,0,0,0,5.9741824,857.4111248
0.118,102.0402443,7.135349,0,0,0,5.9740381,857.4087644
0.12,102.0972986,7.1393386,0,0,0,5.9738912,857.4063607
0.122,102.1543539,7.1433283,0,0,0,5.9737417,857.4039134
0.124,102.2114105,7.1473181,0,0,0,5.9735895,857.4014227
0.126,102.2684683,7.151308,0,0,0,5.9734347,857.3988885
0.128,102.3255276,7.1552979,0,0,0,5.9732771,857.3963108
0.13,102.3825885,7.159288,0,0,0,5.973117,857.3936895
0.132,102.4396511,7.1632782,0,0,0,5.9729541,857.3910247
0.134,102.4967155,7.1672686,0,0,0,5.9727886,857.3883162
0.136,102.5537819,7.171259,0,0,0,5.9726204,857.3855642
0.138,102.6108502,7.1752496,0,0,0,5.9724496,857.3827685
0.14,102.6679207,7.1792404,0,0,0,5.9722761,857.3799291
0.142,102.7249934,7.1832313,0,0,0,5.9720999,857.377046
0.144,102.7820685,7.1872224,0,0,0,5.9719211,857.3741192
0.146,102.8391459,7.1912136,0,0,0,5.9717396,857.3711487
0.148,102.8962258,7.195205,0,0,0,5.9715554,857.3681344
0.15,102.9533083,7.1991966,0,0,0,5.9713685,857.3650763
0.152,103.0104008,7.2031889,0,0,0,5.971179,857.3619744
0.154,103.0674972,7.2071815,0,0,0,5.9709867,857.3588287
0.156,103.1245976,7.2111743,0,0,0,5.9707918,857.3556391
0.158,103.181702,7.2151675,0,0,0,5.9705942,857.3524056
0.16,103.2388106,7.2191609,0,0,0,5.970394,857.3491282
0.162,103.2959234,7.2231546,0,0,0,5.970191,857.3458068
0.164,103.3530405,7.2271486,0,0,0,5.9699854,857.3424415
0.166,103.4101621,7.231143,0,0,0,5.969777,857.3390323
0.168,103.4672881,7.2351376,0,0,0,5.969566,857.335579
0.17,103.5244187,7.2391326,0,0,0,5.9693523,857.3320816
0.172,103.581554,7.2431278,0,0,0,5.9691359,857.3285403
0.174,103.638694,7.2471235,0,0,0,5.9689168,857.3249548
0.176,103.6958388,7.2511194,0,0,0,5.968695,857.3213252
0.178,103.7529885,7.2551157,0,0,0,5.9684705,857.3176515
0.18,103.8101431,7.2591124,0,0,0,5.9682433,857.3139336
0.182,103.8673027,7.2631093,0,0,0,5.9680135,857.3101716
0.184,103.9244673,7.2671067,0,0,0,5.9677809,857.3063654
0.186,103.9816371,7.2711044,0,0,0,5.9675456,857.3025149
0.188,104.038812,7.2751024,0,0,0,5.9673076,857.2986202
0.19,104.0959921,7.2791009,0,0,0,5.9670669,857.2946812
0.192,104.1531775,7.2830997,0,0,0,5.9668235,857.2906979
0.194,104.2103682,7.2870988,0,0,0,5.9665774,857.2866702
0.196,104.2675642,7.2910984,0,0,0,5.9663285,857.2825983
0.198,104.3247657,7.2950983,0,0,0,5.966077,857.2784819
0.2,104.3819727,7.2990986,0,0,0,5.9658228,857.2743212
0.202,104.4391861,7.3030993,0,0,0,5.9655658,857.270116
0.204,104.4964109,7.3071009,0,0,0,5.9653061,857.2658664
0.206,104.5536468,7.3111032,0,0,0,5.9650437,857.2615723
0.208,104.6108934,7.3151063,0,0,0,5.9647786,857.2572337
0.21,104.6681506,7.3191101,0,0,0,5.9645108,857.2528506
0.212,104.7254182,7.3231146,0,0,0,5.9642402,857.2484229
0.214,104.7826958,7.3271199,0,0,0,5.9639669,857.2439507
0.216,104.8399833,7.3311258,0,0,0,5.9636909,857.2394339
0.218,104.8972805,7.3351324,0,0,0,5.9634122,857.2348725
0.22,104.9545871,7.3391397,0,0,0,5.9631307,857.2302664
0.222,105.011903,7.3431476,0,0,0,5.9628465,857.2256156
0.224,105.0692279,7.3471561,0,0,0,5.9625596,857.2209202
0.226,105.1265617,7.3511653,0,0,0,5.9622699,857.2161801
0.228,105.1839042,7.3551751,0,0,0,5.9619776,857.2113952
0.23,105.2412552,7.3591855,0,0,0,5.9616824,857.2065655
0.232,105.2986146,7.3631964,0,0,0,5.9613846,857.2016911
0.234,105.3559821,7.3672079,0,0,0,5.961084,857.1967718
0.236,105.4133577,7.37122,0,0,0,5.9607806,857.1918078
0.238,105.4707412,7.3752327,0,0,0,5.9604746,857.1867988
0.24,105.5281324,7.3792459,0,0,0,5.9601657,857.181745
0.242,105.5855312,7.3832596,0,0,0,5.9598542,857.1766462
0.244,105.6429375,7.3872738,0,0,0,5.9595398,857.1715025
0.246,105.700351,7.3912886,0,0,0,5.9592228,857.1663139
0.248,105.7577718,7.3953038,0,0,0,5.958903,857.1610803
0.25,105.8151997,7.3993196,0,0,0,5.9585804,857.1558016
0.252,105.8725193,7.4033277,0,0,0,5.9582551,857.150478
0.254,105.9298423,7.4073362,0,0,0,5.957927,857.1451093
0.256,105.9871687,7.4113448,0,0,0,5.9575962,857.1396955
0.258,106.0444982,7.4153537,0,0,0,5.9572626,857.1342365
0.26,106.1018311,7.4193628,0,0,0,5.9569263,857.1287325
0.262,106.1591671,7.4233721,0,0,0,5.9565872,857.1231833
0.264,106.2165063,7.4273817,0,0,0,5.9562454,857.1175889
0.266,106.2738487,7.4313914,0,0,0,5.9559007,857.1119494
0.268,106.3311941,7.4354014,0,0,0,5.9555534,857.1062646
0.27,106.3885427,7.4394116,0,0,0,5.9552032,857.1005345
0.272,106.4458943,7.443422,0,0,0,5.9548503,857.0947592
0.274,106.5032489,7.4474327,0,0,0,5.9544946,857.0889385
0.276,106.5606064,7.4514435,0,0,0,5.9541362,857.0830726
# Event LAUNCHROD occurred at t=0.278 seconds
0.278,106.617967,7.4554545,0,0,0,5.953775,857.0771613
0.281,106.7126225,7.1726616,0,0.0001034,-0,5.9532279,857.0682092
0.2855,106.8255557,7.1640737,0,0.000262,-0,5.9523957,857.0545895
0.29225,106.9949204,7.152016,0,0.000508,0,5.9511209,857.0337281
0.30225,107.2464625,7.1427683,0,0.0008903,0,5.949174,857.0018681
0.31225,107.5346139,7.1619045,0,0.00129,0.0000001,5.9471574,856.9688663
0.32225,107.8226946,7.1845962,0,0.0017057,-0,5.9450708,856.9347192
0.33225,108.1106848,7.2110116,0,0.0021365,-0,5.942914,856.8994241
0.34225,108.3985643,7.2413219,0,0.0025826,-0,5.9406869,856.8629777
0.35225,108.6863707,7.2739863,0,0.0030433,-0.0000001,5.9383893,856.825377
0.36225,108.9742245,7.3049028,0,0.0035199,-0.0000001,5.9360209,856.786619
0.37225,109.261912,7.3400875,0,0.0040126,-0.0000001,5.9335816,856.7467006
0.38225,109.5389822,7.3789533,0,0.0045211,-0.0000001,5.9310712,856.7056188
0.39225,109.7896488,7.4205841,0,0.0050453,-0.0000001,5.9284896,856.6633708
0.40225,110.0395575,7.463345,0,0.005585,-0,5.9258365,856.6199539
0.41225,110.2896429,7.4983308,0,0.0061438,-0.0000001,5.9231119,856.5753655
0.42225,110.5394771,7.5381415,0,0.0067224,-0,5.9203155,856.529603
0.43225,110.7890404,7.583022,0,0.0073215,-0.0000001,5.9174472,856.4826636
0.44225,111.0383124,7.6332203,0,0.0079406,0.0000001,5.9145068,856.4345447
0.45225,111.2871595,7.6921185,0,0.0085802,0.0000001,5.9114942,856.3852437
0.46225,111.5352676,7.7678149,0,0.0092358,0,5.9084091,856.3347578
0.47225,111.7829861,7.8498655,0,0.0099068,0,5.9052516,856.2830846
0.48225,112.0302892,7.9384723,0,0.0105918,0.0000002,5.9020213,856.2302213
0.49225,112.2771492,8.0338418,0,0.0112906,-0,5.8987181,856.1761652
0.50225,112.5236122,8.1342837,0,0.0120024,-0.0000001,5.8953419,856.1209139
0.51225,112.7698448,8.2352882,0,0.0127294,0.0000001,5.8918924,856.0644646
0.52225,113.0155653,8.3435284,0,0.0134712,-0.0000002,5.8883696,856.0068148
0.53225,113.2607399,8.4592357,0,0.014228,-0.0000001,5.8847733,855.9479617
0.54225,113.5053326,8.5826398,0,0.0149987,0.0000001,5.8811033,855.8879029
0.55225,113.7494066,8.711739,0,0.0157827,-0.0000001,5.8773595,855.8266357
0.56225,113.9931877,8.8412163,0,0.0165826,0.0000003,5.8735417,855.7641575
0.57225,114.2363006,8.9789056,0,0.0173985,0.0000002,5.8696497,855.7004657
0.58225,114.4787003,9.1250746,0,0.0182298,0.0000004,5.8656834,855.6355578
0.59225,114.7203395,9.2799807,0,0.019076,0.0000004,5.8616426,855.5694311
0.60225,114.9609734,9.4476185,0,0.0199364,0,5.8575272,855.5020831
0.61225,115.2000343,9.6374964,0,0.0208037,-0.0000002,5.853337,855.4335112
0.62225,115.4381126,9.8370226,0,0.0216751,0.0000001,5.8490718,855.3637129
0.63225,115.6751532,10.046332,0,0.0225491,-0.0000004,5.8447316,855.2926856
0.64225,115.9110982,10.2655559,0,0.0234234,-0.0000004,5.8403161,855.2204269
0.65225,116.1464417,10.4857821,0,0.0242969,-0.0000002,5.8358252,855.1469342
0.66225,116.3825854,10.6847658,0,0.0251842,-0.0000003,5.8312587,855.0722049
0.67225,116.6176324,10.8935759,0,0.0260872,-0.0000001,5.8266166,854.9962367
0.68225,116.851508,11.1125429,0,0.0270066,0,5.8218985,854.919027
0.69225,117.0841354,11.341975,0,0.0279412,-0.0000002,5.8171045,854.8405733
0.70225,117.3145828,11.5941946,0,0.0288895,-0.0000002,5.8122343,854.7608731
0.71225,117.5405216,11.899074,0,0.0298275,0.0000001,5.8072877,854.679924
0.72225,117.7646938,12.2154409,0,0.0307467,-0.0000002,5.8022647,854.5977236
0.73225,117.9870289,12.5431651,0,0.0316432,-0.0000004,5.7971651,854.5142695
0.74225,118.2074557,12.8821078,0,0.0325144,-0.0000001,5.7919888,854.4295593
0.75225,118.4259882,13.231118,0,0.0333568,-0.0000006,5.7867355,854.3435907
0.76225,118.6427775,13.5876074,0,0.0341701,-0.0000003,5.7814052,854.2563614
0.77225,118.8574851,13.9547195,0,0.0349514,0.0000002,5.7759977,854.167869
0.78225,119.0700502,14.3322054,0,0.0356961,0.0000003,5.770513,854.0781113
0.79225,119.2804185,14.7197638,0,0.036403,0.0000005,5.7649507,853.9870859
0.80225,119.4879036,15.1233872,0,0.037067,0.0000003,5.7593108,853.8947908
0.81225,119.6908037,15.5579493,0,0.0376709,0.0000003,5.7535933,853.8012236
0.82225,119.8912179,16.0010411,0,0.0382067,0.0000005,5.7477978,853.7063822
0.83225,120.0891482,16.451946,0,0.0386698,0.0000015,5.7419244,853.6102645
0.84225,120.2846086,16.9099238,0,0.0390541,0.0000018,5.7359728,853.5128684
0.85225,120.4788945,17.3637276,0,0.0393571,0.0000024,5.729943,853.4141917
0.86225,120.6753277,17.7873176,0,0.0396015,0.0000039,5.7238349,853.3142325
0.87225,120.8697192,18.2161111,0,0.0397917,0.0000047,5.7176482,853.2129886
0.88225,121.0620928,18.6496007,0,0.0399267,0.0000073,5.7113829,853.1104579
0.89225,121.2524872,19.0872191,0,0.0400027,0.0000151,5.7050388,853.0066385
0.90225,121.4411167,19.5271936,0,0.0400178,0.0000738,5.6986159,852.9015282
0.91225,121.6348282,19.9674214,0,-0.0399712,0.0000305,5.6921139,852.7951251
0.92225,121.8966044,20.4219725,0,-0.0398626,0.0000132,5.6855328,852.6874268
0.93225,122.1777173,20.8831349,0,-0.0396894,0.0000087,5.6788724,852.5784303
0.94225,122.4570876,21.3470057,0,-0.0394518,0.0000071,5.6721325,852.4681326
0.95225,122.7346346,21.8140249,0,-0.039146,0.0000053,5.6653129,852.3565308
0.96225,123.0099903,22.286371,0,-0.038769,0.0000039,5.6584134,852.2436219
0.97225,123.2839152,22.7592011,0,-0.0383158,0.0000035,5.6514339,852.1294031
0.98225,123.5565801,23.2315753,0,-0.0377877,0.0000038,5.6443741,852.0138713
0.99225,123.8281733,23.7025218,0,-0.0371828,0.000003,5.6372339,851.8970237
1.00225,124.0980696,24.1757896,0,-0.0364989,0.0000024,5.6300132,851.7788574
1.01225,124.3643242,24.6622631,0,-0.0357249,0.000002,5.6227117,851.6593695
1.02225,124.6299776,25.1446018,0,-0.0348553,0.0000026,5.6153292,851.5385572
1.03225,124.8953436,25.6214452,0,-0.0338906,0.0000013,5.6078657,851.4164177
1.04225,125.1607621,26.0913779,0,-0.0328297,0.0000014,5.6003209,851.2929481
1.05225,125.427664,26.5473307,0,-0.0316731,0.0000017,5.5926946,851.1681456
1.06225,125.6827768,26.9706916,0,-0.0304355,0.000002,5.5849867,851.0420075
1.07225,125.7109062,27.3390312,0,-0.0291205,0.0000019,5.5771971,850.9145322
1.08225,125.6680817,27.6795463,0,-0.0277344,0.0000017,5.5693258,850.7857199
1.09225,125.6272486,28.0046368,0,-0.0262764,0.000002,5.5613729,850.655571
1.10225,125.5882691,28.3155726,0,-0.0247479,0.0000019,5.5533382,850.524086
1.11225,125.5502575,28.6172418,0,-0.0231484,0.0000024,5.545222,850.3912652
1.12225,125.5152544,28.9000648,0,-0.0214751,0.0000018,5.5370242,850.2571091
1.13225,125.4836543,29.1627306,0,-0.0197362,0.0000018,5.5287448,850.121618
1.14225,125.4558279,29.4040386,0,-0.0179316,0.0000021,5.5203838,849.9847923
1.15225,125.4299331,29.6333661,0,-0.0160689,0.0000021,5.5119413,849.8466322
1.16225,125.4007864,29.8757591,0,-0.0141234,0.0000024,5.5034173,849.7071381
1.17225,125.3763214,30.0936505,0,-0.0120969,0.0000025,5.4948117,849.5663103
1.18225,125.3570088,30.2854038,0,-0.0099921,0.0000031,5.4861247,849.4241489
1.19225,125.3432835,30.4495081,0,-0.0078148,0.0000033,5.4773562,849.2806543
1.20225,125.3382467,30.5719041,0,-0.0055713,0.0000032,5.4685063,849.1358266
1.21225,125.3424912,30.6188805,0,-0.0033016,0.0000024,5.4595749,848.9896657
1.22225,125.3043031,30.624073,0,-0.0010208,0.0000023,5.4505621,848.8421721
1.23225,125.2620777,30.5949625,0,0.0012617,0.0000013,5.4414678,848.693346
1.24225,125.2265973,30.5334453,0,0.0035344,0.0000025,5.4322921,848.543188
1.25225,125.1943607,30.4558638,0,0.0057893,0.0000028,5.4230351,848.3916985
1.26225,125.1568696,30.4024616,0,0.0080541,0.0000021,5.4136967,848.2388778
1.27225,125.1261674,30.3162596,0,0.0103319,0.0000021,5.404277,848.0847263
1.28225,125.1023134,30.1966686,0,0.0126119,0.0000026,5.3947761,847.9292443
1.29225,125.0852978,30.043297,0,0.0148852,0.0000002,5.3851938,847.772432
1.30225,125.0781992,29.8406425,0,0.0171358,0.0000012,5.3755302,847.6142897
1.31225,125.0883618,29.5516025,0,0.0193202,0.0000009,5.3657854,847.4548175
1.32225,125.1044516,29.2296483,0,0.0214065,0.0000013,5.3559593,847.2940151
1.33225,125.1259392,28.8762003,0,0.0233832,0.0000001,5.3460519,847.1318825
1.34225,125.1522597,28.4928156,0,0.0252338,-0.0000004,5.3360632,846.9684195
1.35225,125.1826299,28.0821476,0,0.0269488,-0.0000002,5.3259932,846.8036257
1.36225,125.2160066,27.6482722,0,0.0285116,-0.0000022,5.3158419,846.6375008
1.37225,125.2522841,27.1904543,0,0.0299171,-0.0000002,5.3056092,846.4700445
1.38225,125.2907607,26.7110686,0,0.0311511,-0.0000034,5.2952951,846.3012563
1.39225,125.3307056,26.2127518,0,0.0321989,-0.0000028,5.2848996,846.131136
1.40225,125.3741396,25.6827917,0,0.0330549,-0.0000028,5.2744227,845.959683
1.41225,125.4265784,25.0870915,0,0.0336548,-0.0000075,5.2638643,845.7868968
1.42225,125.4774362,24.4831651,0,0.0339808,-0.0000183,5.2532244,845.6127771
1.43225,125.5258584,23.8750983,0,-0.0340246,-0.000051,5.242503,845.4432694
1.44225,125.5720875,23.2613527,0,-0.0337719,-0.0000127,5.2317,845.2750492
1.45225,125.6113914,22.6718441,0,-0.0332292,-0.0000066,5.2208155,845.1055584
1.46225,125.6327218,22.1800012,0,-0.0324753,-0.000005,5.2098493,844.9347968
1.47225,125.6504448,21.6968551,0,-0.0315351,-0.0000038,5.1988015,844.7627641
1.48225,125.6641711,21.2255028,0,-0.0304146,-0.0000058,5.187672,844.5894602
1.49225,125.6735077,20.7692802,0,-0.029117,-0.0000052,5.1764609,844.4148847
1.50225,125.6808467,20.3123794,0,-0.0276498,-0.000006,5.1651682,844.2390378
1.51225,125.6924284,19.8105989,0,-0.0259649,-0.0000026,5.1537938,844.0619193
1.52225,125.6983107,19.3333321,0,-0.0240541,-0.0000027,5.1423377,843.883529
1.53225,125.6980425,18.8853811,0,-0.0219258,-0.0000043,5.1307999,843.703867
1.54225,125.6912445,18.4712459,0,-0.0195901,-0.000003,5.1191805,843.5229333
1.55225,125.6777742,18.0937745,0,-0.0170617,-0.0000051,5.1074794,843.3407278
1.56225,125.6578012,17.7534105,0,-0.0143562,-0.0000045,5.0956967,843.1572508
1.57225,125.628515,17.4592121,0,-0.0114864,-0.0000028,5.0838323,842.9725025
1.58225,125.5020404,17.2017212,0,-0.008473,-0.0000049,5.0718863,842.7864835
1.59225,125.3144176,16.989893,0,-0.0053369,-0.0000032,5.0598588,842.5991955
1.60225,125.1166513,16.8482092,0,-0.0021023,-0.0000058,5.0477499,842.4106403
1.61225,124.9043445,16.8116742,0,0.0011699,-0.0000065,5.0355598,842.2208199
1.62225,124.6832635,16.8353036,0,0.0044385,-0.0000068,5.0232886,842.0297365
1.63225,124.4533196,16.9191554,0,0.007677,-0.0000069,5.0109364,841.8373923
1.64225,124.2144178,17.0628404,0,0.0108503,-0.0000035,4.9985034,841.6437897
1.65225,123.9647289,17.2786995,0,0.0139377,-0.0000063,4.9859897,841.448931
1.66225,123.6998374,17.5974886,0,0.0168606,-0.0000055,4.9733955,841.2528188
1.67225,123.4259474,17.9690274,0,0.019585,-0.0000067,4.9607211,841.0554558
1.68225,123.1432691,18.3890552,0,0.0220718,-0.0000068,4.9479664,840.8568448
1.69225,122.8520875,18.8527881,0,0.0243056,-0.0000088,4.9351318,840.6569886
1.70225,122.5553191,19.33709,0,0.0262476,-0.0000072,4.9222174,840.4558901
1.71225,122.259741,19.7937437,0,0.0279363,-0.0000084,4.9092234,840.2535523
1.72225,121.9571723,20.2794555,0,0.0293677,-0.0000111,4.8961501,840.0499784
1.73225,121.6481123,20.7891965,0,0.0305163,-0.0000159,4.8829975,839.8451712
1.74225,121.3331972,21.3174432,0,0.031375,-0.0000218,4.869766,839.639134
1.75225,121.0130218,21.8594111,0,0.0319275,-0.0000385,4.8564556,839.4318699
1.76225,120.6880496,22.4115868,0,0.0321523,-0.0001689,4.8430667,839.2233821
1.77225,120.35954,22.9658247,0,-0.0320481,-0.0000577,4.8295994,839.0136741
1.78225,120.0279272,23.5196315,-0,-0.0316056,-0.0000192,4.816054,838.802749
1.79225,119.6944431,24.0664486,0,-0.0308361,-0.0000133,4.8024306,838.5906103
1.80225,119.3593112,24.6061455,0,-0.0297364,-0.000008,4.7887295,838.3772612
1.81225,119.0210794,25.1482663,0,-0.0282883,-0.0000064,4.7749509,838.1627053
1.82225,118.6853137,25.6624948,0,-0.026512,-0.000007,4.761095,837.9469459
1.83225,118.35379,26.1413717,0,-0.0244143,-0.0000073,4.747162,837.7299865
1.84225,118.0283136,26.5776217,0,-0.0220201,-0.0000082,4.7331522,837.5118303
1.85225,117.7107421,26.9638844,0,-0.0193526,-0.0000084,4.7190657,837.2924806
1.86225,117.4030503,27.292269,0,-0.0164396,-0.0000047,4.7049028,837.0719408
1.87225,117.1064145,27.5590874,0,-0.0133205,-0.000003,4.6906637,836.8502139
1.88225,116.822222,27.759257,0,-0.0100286,-0.0000043,4.6763485,836.6273028
1.89225,116.5515929,27.8887255,0,-0.0066068,-0.000007,4.6619575,836.4032106
1.90225,116.2954355,27.9440968,0,-0.0030903,-0.0000051,4.6474908,836.1779398
1.91225,116.0543872,27.9228288,0,0.0004692,-0.0000061,4.6329486,835.9514932
1.92225,115.8286376,27.8240992,0,0.0040311,-0.0000079,4.618331,835.7238731
1.93225,115.6180854,27.647939,0,0.0075407,-0.0000061,4.6036382,835.4950819
1.94225,115.4222841,27.3955411,0,0.010959,-0.0000082,4.5888703,835.2651216
1.95225,115.2444896,27.0475919,0,0.0142245,-0.0000075,4.5740275,835.0339943
1.96225,115.0929345,26.5561716,0,0.0172294,-0.0000084,4.5591098,834.8017017
1.97225,114.9517695,26.0023613,0,0.0199008,-0.000006,4.5441175,834.5682454
1.98225,114.8187854,25.3945544,0,0.0222012,-0.0000073,4.5290504,834.3336268
1.99225,114.6917286,24.7416162,0,0.0240798,-0.0000108,4.5139089,834.0978473
2.00225,114.563798,24.0790217,0,0.0255207,-0.000012,4.4986928,833.8609081
2.01225,114.422623,23.4776145,0,0.026568,-0.0000166,4.4834024,833.6228107
2.02225,114.281854,22.8579234,0,0.0272349,-0.0000317,4.4680377,833.3835563
2.03225,114.1397774,22.2283609,0,0.0275089,-0.0001883,4.4525987,833.1431464
2.04225,113.9950108,21.5961307,0,-0.0273811,-0.0000643,4.4370857,832.9015825
2.05225,113.8491933,20.9503268,0,-0.0268591,-0.000031,4.4214986,832.658866
2.06225,113.7069873,20.2596877,0,-0.0258711,-0.0000181,4.4058376,832.4149984
2.07225,113.5575957,19.5917701,0,-0.0244269,-0.0000124,4.3901028,832.1699812
2.08225,113.399384,18.9583325,0,-0.0225451,-0.000015,4.3742943,831.9238158
2.09225,113.2309206,18.3706378,0,-0.0202464,-0.0000095,4.3584121,831.6765039
2.10225,113.049788,17.8473177,0,-0.017562,-0.0000136,4.3424564,831.4280471
2.11225,112.8520875,17.417985,0,-0.0145738,-0.0000108,4.3264273,831.1784474
2.12225,112.6410526,17.0634016,0,-0.0113312,-0.000012,4.3103249,830.9277066
2.13225,112.4160238,16.7902803,0,-0.0078946,-0.0000157,4.2941494,830.675827
2.14225,112.1765045,16.6037516,0,-0.0043193,-0.0000123,4.2779009,830.4228108
2.15225,111.9213522,16.5128478,0,-0.0006603,-0.0000119,4.2615796,830.1686605
2.16225,111.648499,16.5323545,0,0.0029821,-0.0000166,4.2451856,829.9133786
2.17225,111.3622048,16.643197,0,0.0065546,-0.0000145,4.2287191,829.6569679
2.18225,111.0919724,16.8476572,0,0.0099729,-0.0000151,4.2121803,829.3994311
2.19225,110.8148999,17.1370458,0,0.0131717,-0.0000147,4.1955693,829.1407709
2.20225,110.5210347,17.5232216,0,0.0161075,-0.0000214,4.1788864,828.8809901
2.21225,110.2042819,18.0438876,0,0.0186358,-0.0000221,4.1621317,828.6200917
2.22225,109.8756658,18.6200117,0,0.0206839,-0.0000304,4.1453054,828.3580788
2.23225,109.5368642,19.2380451,0,0.0222046,-0.0000475,4.1284078,828.0949549
2.24225,109.1898078,19.883779,-0,0.0231741,-0.0000842,4.1114391,827.8307233
2.25225,108.8429544,20.5027637,0,0.0235501,-0.0003912,4.0943994,827.5653875
2.26225,108.5136339,20.9882484,0,-0.0234955,-0.0002201,4.0772891,827.2989511
2.27225,108.1821735,21.4680739,0,-0.0230349,-0.0000792,4.0601083,827.0314173
2.28225,107.850361,21.9325857,0,-0.0221788,-0.0000549,4.0428572,826.7627896
2.29225,107.5202771,22.3711068,0,-0.0209472,-0.0000349,4.0255361,826.4930713
2.30225,107.1891703,22.8022907,0,-0.0193665,-0.0000263,4.0081452,826.2222657
2.31225,106.8472868,23.2855605,0,-0.0173601,-0.0000278,3.9906846,825.9503763
2.32225,106.5135833,23.7106757,0,-0.0149352,-0.0000243,3.9731547,825.6774063
2.33225,106.190797,24.0655569,0,-0.0121478,-0.0000151,3.9555556,825.4033593
2.34225,105.8813705,24.3397178,0,-0.0090486,-0.0000156,3.9378876,825.1282385
2.35225,105.5876967,24.5224836,0,-0.0057116,-0.0000207,3.9201508,824.852047
2.36225,105.3122796,24.6018173,0,-0.002208,-0.0000114,3.9023454,824.5747878
2.37225,105.0547084,24.5813038,0,0.0013575,-0.0000063,3.8844717,824.2964636
2.38225,104.8151966,24.4596848,0,0.0049297,-0.0000071,3.8665297,824.0170772
2.39225,104.5933536,24.2379651,0,0.0084106,-0.0000128,3.8485196,823.7366308
2.40225,104.3948758,23.8804676,0,0.0117116,-0.0000049,3.8304417,823.4551268
2.41225,104.2333263,23.3017453,0,0.0146008,-0.0000053,3.8122959,823.1725671
2.42225,104.0821288,22.6496831,0,0.0169791,-0.0000101,3.7940825,822.8889535
2.43225,103.9374006,21.9411479,-0,0.018771,-0.0000154,3.7758014,822.6042874
2.44225,103.7952276,21.1939519,0,0.0199359,-0.0000252,3.7574529,822.3185703
2.45225,103.6475857,20.4529694,0,0.0204292,-0.0001187,3.739037,822.0318036
2.46225,103.4816921,19.7976035,0,-0.0203562,-0.0000688,3.7205537,821.743989
2.47225,103.3473076,19.157031,0,-0.0197198,-0.0000235,3.7020033,821.4551277
2.48225,103.411355,18.5764456,0,-0.0185688,-0.0000202,3.6833857,821.1652202
2.49225,103.4954499,18.0402116,0,-0.0169018,-0.0000188,3.6647008,820.8742657
2.50225,103.5645058,17.5677858,0,-0.0147894,-0.0000141,3.6459486,820.5822633
2.51225,103.6132536,17.1956341,0,-0.0122997,-0.0000093,3.6271291,820.2892122
2.52225,103.6448503,16.9027568,0,-0.0095293,-0.0000099,3.6082422,819.9951121
2.53225,103.6580899,16.6974333,0,-0.0065385,-0.0000105,3.589288,819.6999625
2.54225,103.6519948,16.5859253,0,-0.0034089,-0.0000141,3.5702663,819.4037634
2.55225,103.6283029,16.554689,0,-0.0002425,-0.0000193,3.5511772,819.1065149
2.56225,103.5923582,16.5634992,0,0.0029463,-0.0000135,3.5320208,818.808217
2.57225,103.6031501,16.6827593,0,0.006091,-0.0000196,3.5127969,818.5088702
2.58225,103.6210155,16.9032218,0,0.0091017,-0.0000244,3.4935058,818.2084744
2.59225,103.6232575,17.2155654,0,0.0118886,-0.0000254,3.4741472,817.9070294
2.60225,103.6107922,17.611796,0,0.014378,-0.0000279,3.4547213,817.6045353
2.61225,103.5847127,18.0827101,-0,0.0164725,-0.0000363,3.435228,817.300992
2.62225,103.5472707,18.6120149,0,0.0181261,-0.0000424,3.4156673,816.9964
2.63225,103.5007497,19.1839878,0,0.0192645,-0.000065,3.3960393,816.6907595
2.64225,103.4478564,19.7812812,0,0.0198804,-0.0001855,3.376344,816.3840711
2.65225,103.3912977,20.3876315,0,-0.0199168,-0.0002577,3.3565814,816.0763352
2.66225,103.3334201,20.9899451,0,-0.0194049,-0.00008,3.3367517,815.7675525
2.67225,103.2780385,21.5676776,0,-0.0183316,-0.0000494,3.3168547,815.4577235
2.68225,103.2288593,22.102212,0,-0.0167405,-0.0000334,3.2968906,815.1468487
2.69225,103.1894843,22.5763119,0,-0.0146901,-0.0000214,3.2768593,814.8349288
2.70225,103.1602294,22.9919155,0,-0.0122266,-0.0000197,3.2567609,814.5219639
2.71225,103.1013552,23.3699683,0,-0.0093661,-0.0000126,3.2365955,814.2079548
2.72225,102.5774091,23.5547851,0,-0.0061882,-0.00002,3.2163632,813.8929043
2.73225,101.9215796,23.5965441,0,-0.0027912,-0.0000236,3.1960644,813.5768186
2.74225,98.0593248,22.9169135,0,0.0007172,-0.0000264,3.1757007,813.2597206
2.75225,88.1412474,20.9616609,0,0.0041979,-0.0000236,3.1552763,812.9416801
2.76225,78.1158299,18.7891744,0,0.0074354,-0.000021,3.134798,812.6227983
2.77225,68.1095166,16.5252705,0,0.0102954,-0.000024,3.1142721,812.3031766
2.78225,58.1178157,14.191427,0,0.0126832,-0.0000237,3.0937053,811.9829164
2.79225,48.1359478,11.8107373,0,0.0145077,-0.0000326,3.0731039,811.6621189
2.80225,38.1595501,9.4043719,0,0.0157059,-0.0000621,3.0524745,811.3408851
2.81225,28.1851292,6.9892668,0,0.0162303,-0.0002845,3.0318236,811.019316
2.82225,18.257803,4.6057232,0,-0.0160578,-0.0001083,3.0111576,810.6975123
2.83225,12.3513303,2.9834096,0,-0.0152251,-0.0000578,2.9904817,810.3755542
2.84225,8.9720217,1.8629376,0,-0.0137341,-0.0000324,2.9697989,810.0534887
2.85225,5.5832365,0.8051658,0,-0.0116734,-0.0000223,2.9491114,809.7313498
2.86225,2.1832762,0.1774654,0,-0.009113,-0.0000237,2.9284214,809.4091721
2.87225,-1.2297673,1.070535,0,-0.0061597,-0.0000214,2.9077311,809.0869897
2.88225,-4.5305081,1.8440302,0,-0.0029094,-0.0000271,2.8870427,808.7648368
2.89225,-7.3694877,2.4328969,0,0.0005058,-0.0000214,2.8663582,808.4427442
2.90225,-10.1785815,2.9028133,0,0.0039717,-0.0000118,2.8456794,808.1207404
2.91225,-13.006532,3.242094,0,0.0073109,-0.0000202,2.8250081,807.798854
2.92225,-15.8465109,3.4950696,0,0.0104084,-0.0000219,2.8043462,807.4771135
2.93225,-18.6528788,3.6664242,0,0.0131504,-0.0000145,2.7836954,807.1555475
2.94225,-20.2999557,3.5706034,0,0.0154424,-0.0000283,2.7630574,806.8341784
2.95225,-21.4343094,3.3385251,0,0.0172073,-0.0000347,2.7424328,806.5130203
2.96225,-22.5729449,3.0836536,-0,0.0184151,-0.0000494,2.7218226,806.1920846
2.97225,-23.7140778,2.8170365,0,0.0190064,-0.0001313,2.7012274,805.871383
2.98225,-24.854896,2.5549268,0,-0.019012,-0.0001229,2.6806479,805.5509268
2.99,-25.97985,2.5684,0,0,0,0,805.1208
3,-25.94893,2.564287,0,0,0,0,804.7776
3.01,-25.91808,2.560184,0,0,0,0,804.4476
3.02,-25.8873,2.556091,0,0,0,0,804.144
3.03,-25.8566,2.552006,0,0,0,0,803.7744
3.04,-25.82596,2.547931,0,0,0,0,803.5632
3.05,-25.7954,2.543865,0,0,0,0,803.1804
3.06,-25.76491,2.539808,0,0,0,0,802.9428
3.07,-25.73449,2.53576,0,0,0,0,802.5732
3.08,-25.70414,2.531722,0,0,0,0,802.2828
3.09,-25.67386,2.527692,0,0,0,0,801.8736
3.1,-25.64369,2.523678,0,0,0,0,801.5964
3.11,-25.61368,2.519686,0,0,0,0,801.3588
3.12,-25.58373,2.515703,0,0,0,0,800.976
3.13,-25.55385,2.511728,0,0,0,0,800.712
3.14,-25.52404,2.507763,0,0,0,0,800.3556
3.15,-25.49429,2.503806,0,0,0,0,800.0652
3.16,-25.46462,2.499858,0,0,0,0,799.6956
3.17,-25.43501,2.495919,0,0,0,0,799.392
3.18,-25.40547,2.491988,0,0,0,0,799.1808
3.19,-25.376,2.488066,0,0,0,0,798.8244
3.2,-25.3466,2.484153,0,0,0,0,798.4944
3.21,-25.31726,2.480249,0,0,0,0,798.1776
3.22,-25.28799,2.476353,0,0,0,0,797.94
3.23,-25.25879,2.472466,0,0,0,0,797.5968
3.24,-25.22965,2.468587,0,0,0,0,797.3196
3.25,-25.20058,2.464717,0,0,0,0,797.0028
3.26,-25.17157,2.460856,0,0,0,0,796.7124
3.27,-25.14264,2.457002,0,0,0,0,796.3956
3.28,-25.11376,2.453158,0,0,0,0,796.0128
3.29,-25.08496,2.449322,0,0,0,0,795.7752
3.3,-25.05621,2.445494,0,0,0,0,795.5112
3.31,-25.0276,2.441685,0,0,0,0,795.1812
3.32,-24.9991,2.437892,0,0,0,0,794.7456
3.33,-24.97067,2.434107,0,0,0,0,794.5344
3.34,-24.9423,2.430331,0,0,0,0,794.2308
3.35,-24.91399,2.426563,0,0,0,0,793.9536
3.36,-24.88575,2.422803,0,0,0,0,793.6104
3.37,-24.85757,2.419051,0,0,0,0,793.3332
3.38,-24.82945,2.415307,0,0,0,0,793.1088
3.39,-24.80139,2.411571,0,0,0,0,792.7656
3.4,-24.7734,2.407844,0,0,0,0,792.4356
3.41,-24.74547,2.404124,0,0,0,0,792.0924
3.42,-24.71761,2.400413,0,0,0,0,791.8284
3.43,-24.6898,2.396709,0,0,0,0,791.538
3.44,-24.66206,2.393014,0,0,0,0,791.208
3.45,-24.63438,2.389326,0,0,0,0,790.9176
3.46,-24.60676,2.385647,0,0,0,0,790.6536
3.47,-24.57921,2.381975,0,0,0,0,790.4028
3.48,-24.55171,2.378311,0,0,0,0,789.9276
3.49,-24.52428,2.374655,0,0,0,0,789.69
3.5,-24.4969,2.371007,0,0,0,0,789.4788
3.51,-24.46959,2.367367,0,0,0,0,789.162
3.52,-24.44237,2.36374,0,0,0,0,788.832
3.53,-24.41528,2.360132,0,0,0,0,788.5548
3.54,-24.38826,2.356532,0,0,0,0,788.1984
3.55,-24.36129,2.35294,0,0,0,0,787.908
3.56,-24.33438,2.349355,0,0,0,0,787.6704
3.57,-24.30753,2.345778,0,0,0,0,787.4196
3.58,-24.28074,2.342208,0,0,0,0,787.0896
3.59,-24.25401,2.338646,0,0,0,0,786.7464
3.6,-24.22734,2.335092,0,0,0,0,786.5088
3.61,-24.20072,2.331545,0,0,0,0,786.1656
3.62,-24.17417,2.328005,0,0,0,0,785.8488
3.63,-24.14767,2.324473,0,0,0,0,785.5716
3.64,-24.12123,2.320949,0,0,0,0,785.268
3.65,-24.09485,2.317432,0,0,0,0,784.9908
3.66,-24.06853,2.313922,0,0,0,0,784.74
3.67,-24.04226,2.31042,0,0,0,0,784.3704
3.68,-24.01605,2.306925,0,0,0,0,784.146
3.69,-23.9899,2.303437,0,0,0,0,783.882
3.7,-23.9638,2.299957,0,0,0,0,783.552
3.71,-23.93776,2.296484,0,0,0,0,783.288
3.72,-23.91178,2.293018,0,0,0,0,782.958
3.73,-23.88586,2.28956,0,0,0,0,782.76
3.74,-23.85606,2.285469,0,0,0,0,782.4168
3.75,-23.82282,2.280819,0,0,0,0,782.0076
3.76,-23.78969,2.276181,0,0,0,0,781.7964
3.77,-23.75665,2.271558,0,0,0,0,781.44
3.78,-23.72372,2.266948,0,0,0,0,781.2684
3.79,-23.69088,2.262352,0,0,0,0,780.9516
3.8,-23.65815,2.257769,0,0,0,0,780.6744
3.81,-23.62551,2.253199,0,0,0,0,780.3972
3.82,-23.59297,2.248643,0,0,0,0,780.1464
3.83,-23.56053,2.2441,0,0,0,0,779.7636
3.84,-23.52819,2.239571,0,0,0,0,779.4864
3.85,-23.49595,2.235054,0,0,0,0,779.2356
3.86,-23.4638,2.230551,0,0,0,0,778.9584
3.87,-23.43175,2.226061,0,0,0,0,778.5888
3.88,-23.39979,2.221584,0,0,0,0,778.3248
3.89,-23.36793,2.21712,0,0,0,0,778.0608
3.9,-23.33617,2.212669,0,0,0,0,777.678
3.91,-23.3045,2.208231,0,0,0,0,777.546
3.92,-23.27292,2.203806,0,0,0,0,777.1632
3.93,-23.24144,2.199393,0,0,0,0,776.9784
3.94,-23.21005,2.194993,0,0,0,0,776.6088
3.95,-23.17876,2.190606,0,0,0,0,776.3844
3.96,-23.14611,2.185994,0,0,0,0,776.1072
3.97,-23.1068,2.180289,0,0,0,0,775.7904
3.98,-23.06763,2.174604,0,0,0,0,775.5396
3.99,-23.02861,2.16894,0,0,0,0,775.2228
4,-22.98974,2.163295,0,0,0,0,774.972
4.01,-22.95101,2.157672,0,0,0,0,774.6156
4.02,-22.91242,2.152068,0,0,0,0,774.3516
4.03,-22.87398,2.146484,0,0,0,0,774.1668
4.04,-22.83568,2.14092,0,0,0,0,773.7972
4.05,-22.79752,2.135376,0,0,0,0,773.5464
4.06,-22.7595,2.129851,0,0,0,0,773.19
4.07,-22.72162,2.124346,0,0,0,0,772.9656
4.08,-22.68388,2.118861,0,0,0,0,772.662
4.09,-22.64628,2.113395,0,0,0,0,772.4112
4.1,-22.60881,2.107948,0,0,0,0,772.1868
4.11,-22.57149,2.102521,0,0,0,0,771.9096
4.12,-22.5343,2.097113,0,0,0,0,771.6324
4.13,-22.49724,2.091723,0,0,0,0,771.3156
4.14,-22.46032,2.086353,0,0,0,0,771.0516
4.15,-22.42354,2.081001,0,0,0,0,770.7084
4.16,-22.38689,2.075668,0,0,0,0,770.4576
4.17,-22.35037,2.070354,0,0,0,0,770.2464
4.18,-22.31399,2.065059,0,0,0,0,769.956
4.19,-22.27782,2.059796,0,0,0,0,769.6656
4.2,-22.24366,2.05486,0,0,0,0,769.3092
4.21,-22.20961,2.049941,0,0,0,0,769.098
4.22,-22.17569,2.045038,0,0,0,0,768.834
4.23,-22.14188,2.040152,0,0,0,0,768.5172
4.24,-22.10818,2.035281,0,0,0,0,768.2796
4.25,-22.0746,2.030427,0,0,0,0,768.0948
4.26,-22.04114,2.025588,0,0,0,0,767.6988
4.27,-22.00779,2.020766,0,0,0,0,767.3688
4.28,-21.97455,2.015959,0,0,0,0,767.052
4.29,-21.94143,2.011168,0,0,0,0,766.8672
4.3,-21.90842,2.006392,0,0,0,0,766.59
4.31,-21.87552,2.001633,0,0,0,0,766.2996
4.32,-21.84273,1.996889,0,0,0,0,766.1676
4.33,-21.81006,1.99216,0,0,0,0,765.8508
4.34,-21.7775,1.987447,0,0,0,0,765.5604
4.35,-21.74504,1.982749,0,0,0,0,765.2832
4.36,-21.7127,1.978066,0,0,0,0,764.8608
4.37,-21.68046,1.973399,0,0,0,0,764.7948
4.38,-21.64834,1.968746,0,0,0,0,764.4516
4.39,-21.61632,1.964109,0,0,0,0,764.1348
4.4,-21.58441,1.959487,0,0,0,0,763.818
4.41,-21.55261,1.954879,0,0,0,0,763.6332
4.42,-21.52091,1.950287,0,0,0,0,763.4484
4.43,-21.48938,1.945719,0,0,0,0,763.1052
4.44,-21.45927,1.941384,0,0,0,0,762.8676
4.45,-21.42926,1.937062,0,0,0,0,762.5508
4.46,-21.39934,1.932754,0,0,0,0,762.3396
4.47,-21.36951,1.928459,0,0,0,0,761.9568
4.48,-21.33979,1.924178,0,0,0,0,761.7984
4.49,-21.31016,1.919909,0,0,0,0,761.508
4.5,-21.28062,1.915654,0,0,0,0,761.2044
4.51,-21.25118,1.911411,0,0,0,0,760.9536
4.52,-21.22183,1.907182,0,0,0,0,760.7556
4.53,-21.19257,1.902965,0,0,0,0,760.4124
4.54,-21.16341,1.898762,0,0,0,0,760.188
4.55,-21.13434,1.894571,0,0,0,0,759.8316
4.56,-21.10536,1.890393,0,0,0,0,759.6732
4.57,-21.07647,1.886227,0,0,0,0,759.4356
4.58,-21.04768,1.882075,0,0,0,0,759.066
4.59,-21.01898,1.877934,0,0,0,0,758.7756
4.6,-20.99037,1.873807,0,0,0,0,758.5116
4.61,-20.96184,1.869692,0,0,0,0,758.3268
4.62,-20.93341,1.865589,0,0,0,0,757.9968
4.63,-20.90507,1.861499,0,0,0,0,757.7592
4.64,-20.87682,1.857421,0,0,0,0,757.4424
4.65,-20.84865,1.853355,0,0,0,0,757.284
4.66,-20.82057,1.849301,0,0,0,0,756.9408
4.67,-20.79259,1.84526,0,0,0,0,756.7428
4.68,-20.76488,1.841264,0,0,0,0,756.4788
4.69,-20.73806,1.837413,0,0,0,0,756.1752
4.7,-20.71132,1.833574,0,0,0,0,755.9376
4.71,-20.68466,1.829745,0,0,0,0,755.6472
4.72,-20.65808,1.825928,0,0,0,0,755.3832
4.73,-20.63159,1.822122,0,0,0,0,755.1852
4.74,-20.60517,1.818327,0,0,0,0,754.8816
4.75,-20.57883,1.814542,0,0,0,0,754.5648
4.76,-20.55257,1.810769,0,0,0,0,754.4196
4.77,-20.52639,1.807006,0,0,0,0,754.05
4.78,-20.50029,1.803254,0,0,0,0,753.852
4.79,-20.47426,1.799513,0,0,0,0,753.5484
4.8,-20.44831,1.795782,0,0,0,0,753.3108
4.81,-20.42244,1.792063,0,0,0,0,753.0732
4.82,-20.39665,1.788353,0,0,0,0,752.8488
4.83,-20.37094,1.784655,0,0,0,0,752.532
4.84,-20.3453,1.780967,0,0,0,0,752.2944
4.85,-20.31974,1.777289,0,0,0,0,752.0172
4.86,-20.29425,1.773622,0,0,0,0,751.7664
4.87,-20.26884,1.769965,0,0,0,0,751.4628
4.88,-20.2435,1.766319,0,0,0,0,751.2516
4.89,-20.21824,1.762682,0,0,0,0,751.0668
4.9,-20.19306,1.759057,0,0,0,0,750.6972
4.91,-20.16795,1.755441,0,0,0,0,750.4332
4.92,-20.14291,1.751836,0,0,0,0,750.3012
4.93,-20.11795,1.74824,0,0,0,0,750.024
4.94,-20.09345,1.744721,0,0,0,0,749.7468
4.95,-20.06937,1.741271,0,0,0,0,749.4036
4.96,-20.04536,1.73783,0,0,0,0,749.2716
4.97,-20.02142,1.734399,0,0,0,0,748.9284
4.98,-19.99754,1.730977,0,0,0,0,748.638
4.99,-19.97374,1.727564,0,0,0,0,748.4136
5,-19.95,1.724161,0,0,0,0,748.2024
5.01,-19.92633,1.720766,0,0,0,0,747.9648
5.02,-19.90273,1.717381,0,0,0,0,747.6876
5.03,-19.8792,1.714006,0,0,0,0,747.4104
5.04,-19.85573,1.710639,0,0,0,0,747.252
5.05,-19.83233,1.707281,0,0,0,0,746.8956
5.06,-19.80899,1.703933,0,0,0,0,746.6712
5.07,-19.78572,1.700593,0,0,0,0,746.3808
5.08,-19.76252,1.697263,0,0,0,0,746.1828
5.09,-19.73938,1.693941,0,0,0,0,745.8264
5.1,-19.7163,1.690628,0,0,0,0,745.6812
5.11,-19.6933,1.687325,0,0,0,0,745.3644
5.12,-19.67035,1.68403,0,0,0,0,745.1532
5.13,-19.64747,1.680744,0,0,0,0,744.8628
5.14,-19.62466,1.677466,0,0,0,0,744.5988
5.15,-19.60191,1.674198,0,0,0,0,744.3216
5.16,-19.57922,1.670938,0,0,0,0,744.1104
5.17,-19.5566,1.667687,0,0,0,0,743.9124
5.18,-19.53404,1.664444,0,0,0,0,743.6748
5.19,-19.51154,1.66121,0,0,0,0,743.4768
5.2,-19.48913,1.657989,0,0,0,0,743.1864
5.21,-20.22202,1.783944,0,0,0,0,742.8168
5.22,-20.92439,1.90477,0,0,0,0,742.6188
5.23,-21.55644,2.013652,0,0,0,0,742.4076
5.24,-22.12653,2.112002,0,0,0,0,742.0512
5.25,-22.63953,2.200649,0,0,0,0,741.906
5.26,-22.3955,2.159648,0,0,0,0,741.642
5.27,-22.79532,2.228978,0,0,0,0,741.4308
5.28,-23.23364,2.304963,0,0,0,0,741.1932
5.29,-23.62697,2.373284,0,0,0,0,740.9688
5.3,-23.97958,2.434671,0,0,0,0,740.6784
5.31,-24.29877,2.490367,0,0,0,0,740.4276
5.32,-24.58262,2.540035,0,0,0,0,740.256
5.33,-24.83634,2.584565,0,0,0,0,740.0184
5.34,-25.06257,2.624403,0,0,0,0,739.6884
5.35,-25.26243,2.659739,0,0,0,0,739.464
5.36,-25.44033,2.691326,0,0,0,0,739.1736
5.37,-25.59638,2.719178,0,0,0,0,738.9624
5.38,-25.73406,2.743888,0,0,0,0,738.7512
5.39,-25.85484,2.765708,0,0,0,0,738.4476
5.4,-25.95923,2.784722,0,0,0,0,738.2364
5.41,-26.04942,2.801304,0,0,0,0,737.9988
5.42,-26.12762,2.815832,0,0,0,0,737.7216
5.43,-26.19362,2.828269,0,0,0,0,737.484
5.44,-26.24945,2.838962,0,0,0,0,737.3388
5.45,-26.29612,2.848081,0,0,0,0,736.9824
5.46,-26.33443,2.855767,0,0,0,0,736.758
5.47,-26.36515,2.862148,0,0,0,0,736.4808
5.48,-26.3881,2.86719,0,0,0,0,736.296
5.49,-26.40483,2.871163,0,0,0,0,736.0716
5.5,-26.41594,2.874168,0,0,0,0,735.7944
5.51,-26.43182,2.878001,0,0,0,0,735.5964
5.52,-26.44214,2.880876,0,0,0,0,735.306
5.53,-26.44742,2.882882,0,0,0,0,735.1476
5.54,-26.44812,2.884097,0,0,0,0,734.8572
5.55,-26.44469,2.884596,0,0,0,0,734.6592
5.56,-26.43715,2.884386,0,0,0,0,734.4744
5.57,-26.42612,2.883572,0,0,0,0,734.1708
5.58,-26.41206,2.882232,0,0,0,0,733.9596
5.59,-26.39526,2.880416,0,0,0,0,733.6824
5.6,-26.37598,2.878169,0,0,0,0,733.4184
5.61,-26.33192,2.87162,0,0,0,0,733.1544
5.62,-26.28848,2.865173,0,0,0,0,732.9432
5.63,-26.24523,2.858755,0,0,0,0,732.7716
5.64,-26.20212,2.852357,0,0,0,0,732.5208
5.65,-26.15915,2.845981,0,0,0,0,732.204
5.66,-26.11633,2.839625,0,0,0,0,732.006
5.67,-26.06686,2.832107,0,0,0,0,731.7288
5.68,-26.016,2.824343,0,0,0,0,731.5572
5.69,-25.96609,2.81674,0,0,0,0,731.3592
5.7,-25.91706,2.809284,0,0,0,0,731.0424
5.71,-25.87506,2.803049,0,0,0,0,730.7256
5.72,-25.8332,2.796834,0,0,0,0,730.6464
5.73,-25.79902,2.791953,0,0,0,0,730.5144
5.74,-25.78125,2.789933,0,0,0,0,730.1712
5.75,-25.76132,2.787536,0,0,0,0,729.9204
5.76,-25.73946,2.784799,0,0,0,0,729.696
5.77,-25.71584,2.781755,0,0,0,0,729.4848
5.78,-25.69065,2.778433,0,0,0,0,729.3
5.79,-25.66403,2.774861,0,0,0,0,729.0492
5.8,-25.63614,2.771064,0,0,0,0,728.7456
5.81,-25.59506,2.764957,0,0,0,0,728.5212
5.82,-25.55448,2.758933,0,0,0,0,728.2968
5.83,-25.49005,2.74873,0,0,0,0,728.0196
5.84,-25.42193,2.737873,0,0,0,0,727.8876
5.85,-25.35665,2.727507,0,0,0,0,727.6104
5.86,-25.29397,2.717588,0,0,0,0,727.4388
5.87,-25.23365,2.708075,0,0,0,0,727.1352
5.88,-25.17547,2.698932,0,0,0,0,726.99
5.89,-25.11925,2.690125,0,0,0,0,726.6072
5.9,-25.06481,2.681625,0,0,0,0,726.5412
5.91,-25.02602,2.675869,0,0,0,0,726.1584
5.92,-24.98736,2.67013,0,0,0,0,725.9604
5.93,-24.96593,2.667416,0,0,0,0,725.7756
5.94,-24.95292,2.666183,0,0,0,0,725.4852
5.95,-24.9376,2.664542,0,0,0,0,725.34
5.96,-24.92018,2.662531,0,0,0,0,725.1156
5.97,-24.90087,2.660186,0,0,0,0,724.9308
5.98,-24.87985,2.657538,0,0,0,0,724.6272
5.99,-24.85729,2.654619,0,0,0,0,724.4292
6,-24.83334,2.651453,0,0,0,0,724.2048
6.01,-24.80815,2.648065,0,0,0,0,723.9936
6.02,-24.78205,2.644515,0,0,0,0,723.7692
6.03,-24.75505,2.640804,0,0,0,0,723.4788
6.04,-24.72715,2.636932,0,0,0,0,723.3732
6.05,-24.69844,2.632914,0,0,0,0,723.0564
6.06,-24.669,2.628765,0,0,0,0,722.8056
6.07,-24.63891,2.624499,0,0,0,0,722.5812
6.08,-24.60824,2.620128,0,0,0,0,722.4492
6.09,-24.57707,2.615663,0,0,0,0,722.172
6.1,-24.54543,2.611114,0,0,0,0,722.0664
6.11,-24.51339,2.606491,0,0,0,0,721.7232
6.12,-24.481,2.601802,0,0,0,0,721.4988
6.13,-24.44829,2.597054,0,0,0,0,721.3008
6.14,-24.41531,2.592255,0,0,0,0,721.0104
6.15,-24.3821,2.587411,0,0,0,0,720.8256
6.16,-24.34868,2.582527,0,0,0,0,720.5616
6.17,-24.31508,2.577608,0,0,0,0,720.4428
6.18,-24.28133,2.572659,0,0,0,0,720.192
6.19,-24.24746,2.567685,0,0,0,0,719.9148
6.2,-24.21348,2.562689,0,0,0,0,719.7432
6.21,-24.17942,2.557674,0,0,0,0,719.5056
6.22,-24.14529,2.552644,0,0,0,0,719.3604
6.23,-24.1113,2.547635,0,0,0,0,719.1492
6.24,-24.07736,2.542631,0,0,0,0,718.8984
6.25,-24.04339,2.537619,0,0,0,0,718.674
6.26,-24.0094,2.532601,0,0,0,0,718.4628
6.27,-23.97542,2.527579,0,0,0,0,718.1724
6.28,-23.94144,2.522555,0,0,0,0,718.014
6.29,-23.90748,2.517531,0,0,0,0,717.7632
6.3,-23.87355,2.512507,0,0,0,0,717.5916
6.31,-23.83964,2.507485,0,0,0,0,717.3408
6.32,-23.80577,2.502467,0,0,0,0,717.2088
6.33,-23.77195,2.497453,0,0,0,0,716.9184
6.34,-23.73818,2.492444,0,0,0,0,716.7468
6.35,-23.70446,2.487442,0,0,0,0,716.4828
6.36,-23.6708,2.482446,0,0,0,0,716.1924
6.37,-23.63719,2.477457,0,0,0,0,716.0604
6.38,-23.60366,2.472477,0,0,0,0,715.8228
6.39,-23.57019,2.467506,0,0,0,0,715.5588
6.4,-23.5368,2.462544,0,0,0,0,715.4136
6.41,-23.50347,2.457591,0,0,0,0,715.2024
6.42,-23.47023,2.452648,0,0,0,0,714.9648
6.43,-23.43706,2.447716,0,0,0,0,714.8196
6.44,-23.40399,2.4428,0,0,0,0,714.516
6.45,-23.37121,2.437929,0,0,0,0,714.2916
6.46,-23.3385,2.43307,0,0,0,0,714.12
6.47,-23.30588,2.428222,0,0,0,0,713.922
6.48,-23.27334,2.423386,0,0,0,0,713.6712
6.49,-23.24089,2.418561,0,0,0,0,713.4732
6.5,-23.20851,2.413748,0,0,0,0,713.2224
6.51,-23.17623,2.408947,0,0,0,0,713.1432
6.52,-23.14403,2.404157,0,0,0,0,712.932
6.53,-23.11191,2.39938,0,0,0,0,712.5756
6.54,-23.07989,2.394616,0,0,0,0,712.5096
6.55,-23.04795,2.389863,0,0,0,0,712.1796
6.56,-23.01609,2.385123,0,0,0,0,711.9948
6.57,-22.98433,2.380395,0,0,0,0,711.8232
6.58,-22.95265,2.37568,0,0,0,0,711.5724
6.59,-22.92106,2.370977,0,0,0,0,711.4404
6.6,-22.88956,2.366286,0,0,0,0,711.2292
6.61,-22.85811,2.361602,0,0,0,0,710.8992
6.62,-22.82675,2.35693,0,0,0,0,710.7012
6.63,-22.79549,2.352272,0,0,0,0,710.5164
6.64,-22.76431,2.347627,0,0,0,0,710.358
6.65,-22.73323,2.342995,0,0,0,0,710.1072
6.66,-22.70223,2.338376,0,0,0,0,709.9488
6.67,-22.67044,2.333608,0,0,0,0,709.7244
6.68,-22.63351,2.327906,0,0,0,0,709.4604
6.69,-22.59727,2.322326,0,0,0,0,709.302
6.7,-22.56168,2.316858,0,0,0,0,709.0644
6.71,-22.53137,2.312346,0,0,0,0,708.8532
6.72,-22.50116,2.307847,0,0,0,0,708.7344
6.73,-22.47103,2.303359,0,0,0,0,708.4044
6.74,-22.44098,2.298885,0,0,0,0,708.18
6.75,-22.41102,2.294422,0,0,0,0,708.0876
6.76,-22.38115,2.289972,0,0,0,0,707.7972
6.77,-22.35136,2.285534,0,0,0,0,707.652
6.78,-22.32166,2.281108,0,0,0,0,707.454
6.79,-22.29204,2.276694,0,0,0,0,707.2296
6.8,-22.2625,2.272293,0,0,0,0,707.0184
6.81,-22.23305,2.267903,0,0,0,0,706.8336
6.82,-22.20368,2.263526,0,0,0,0,706.6884
6.83,-22.1744,2.25916,0,0,0,0,706.398
6.84,-22.1452,2.254806,0,0,0,0,706.2528
6.85,-22.11608,2.250464,0,0,0,0,706.002
6.86,-22.08756,2.246229,0,0,0,0,705.8436
6.87,-22.06019,2.2422,0,0,0,0,705.5928
6.88,-22.03274,2.238155,0,0,0,0,705.4608
6.89,-22.00524,2.234096,0,0,0,0,705.2232
6.9,-21.97785,2.230054,0,0,0,0,705.078
6.91,-21.94936,2.225808,0,0,0,0,704.8272
6.92,-21.92094,2.221573,0,0,0,0,704.6424
6.93,-21.89261,2.217349,0,0,0,0,704.4576
6.94,-21.85997,2.212334,0,0,0,0,704.22
6.95,-21.819,2.205786,0,0,0,0,703.9956
6.96,-21.77934,2.199474,0,0,0,0,703.7976
6.97,-21.74089,2.193378,0,0,0,0,703.56
6.98,-21.70353,2.187478,0,0,0,0,703.3224
6.99,-21.66716,2.181756,0,0,0,0,703.2168
7,-21.63171,2.176198,0,0,0,0,703.032
7.01,-21.60421,2.172097,0,0,0,0,702.8208
7.02,-21.57679,2.168008,0,0,0,0,702.5964
7.03,-21.54944,2.163929,0,0,0,0,702.3984
7.04,-21.52217,2.159861,0,0,0,0,702.2664
7.05,-21.49497,2.155804,0,0,0,0,702.0288
7.06,-21.46785,2.151757,0,0,0,0,701.8836
7.07,-21.44701,2.148866,0,0,0,0,701.6592
7.08,-21.42629,2.145993,0,0,0,0,701.4876
7.09,-21.40503,2.143021,0,0,0,0,701.1708
7.1,-21.38331,2.13996,0,0,0,0,701.0124
7.11,-21.35648,2.135954,0,0,0,0,700.8804
7.12,-21.32972,2.131959,0,0,0,0,700.7088
7.13,-21.30308,2.127981,0,0,0,0,700.3656
7.14,-21.27472,2.123684,0,0,0,0,700.2468
7.15,-21.23652,2.117562,0,0,0,0,700.128
7.16,-21.19954,2.111659,0,0,0,0,699.864
7.17,-21.16365,2.105956,0,0,0,0,699.6264
7.18,-21.12877,2.100435,0,0,0,0,699.402
7.19,-21.09481,2.095079,0,0,0,0,699.27
7.2,-21.06169,2.089875,0,0,0,0,699.0852
7.21,-21.0359,2.086026,0,0,0,0,698.8872
7.22,-21.01017,2.082186,0,0,0,0,698.676
7.23,-20.98452,2.078357,0,0,0,0,698.4912
7.24,-20.95893,2.074537,0,0,0,0,698.3196
7.25,-20.93855,2.071681,0,0,0,0,698.148
7.26,-20.92231,2.069595,0,0,0,0,697.8444
7.27,-20.90527,2.067356,0,0,0,0,697.7388
7.28,-20.88749,2.064979,0,0,0,0,697.5012
7.29,-20.86904,2.062477,0,0,0,0,697.356
7.3,-20.85001,2.059863,0,0,0,0,697.1184
7.31,-20.83044,2.057148,0,0,0,0,696.9996
7.32,-20.81039,2.054341,0,0,0,0,696.8016
7.33,-20.78991,2.051453,0,0,0,0,696.5244
7.34,-20.76906,2.048491,0,0,0,0,696.3528
7.35,-20.74786,2.045464,0,0,0,0,696.2472
7.36,-20.72636,2.042378,0,0,0,0,696.036
7.37,-20.70459,2.039239,0,0,0,0,695.7192
7.38,-20.68269,2.036073,0,0,0,0,695.6268
7.39,-20.66059,2.032866,0,0,0,0,695.442
7.4,-20.6383,2.029623,0,0,0,0,695.1912
7.41,-20.6137,2.025945,0,0,0,0,694.98
7.42,-20.58916,2.022275,0,0,0,0,694.8612
7.43,-20.56469,2.018615,0,0,0,0,694.6104
7.44,-20.54029,2.014964,0,0,0,0,694.5048
7.45,-20.51595,2.011323,0,0,0,0,694.2804
7.46,-20.49167,2.00769,0,0,0,0,694.0164
7.47,-20.46745,2.004066,0,0,0,0,693.9372
7.48,-20.4433,2.000451,0,0,0,0,693.6732
7.49,-20.41921,1.996846,0,0,0,0,693.5016
7.5,-20.39518,1.993249,0,0,0,0,693.4224
7.51,-20.37122,1.989661,0,0,0,0,693.1452
7.52,-20.34872,1.986346,0,0,0,0,692.9604
7.53,-20.32685,1.983145,0,0,0,0,692.8152
7.54,-20.30484,1.979919,0,0,0,0,692.6436
7.55,-20.28273,1.976669,0,0,0,0,692.3796
7.56,-20.26053,1.973399,0,0,0,0,692.1948
7.57,-20.23824,1.970111,0,0,0,0,691.9968
7.58,-20.21589,1.966808,0,0,0,0,691.8648
7.59,-20.19348,1.963492,0,0,0,0,691.6536
7.6,-20.17103,1.960165,0,0,0,0,691.4952
7.61,-20.14855,1.956829,0,0,0,0,691.3368
7.62,-20.12603,1.953485,0,0,0,0,691.152
7.63,-20.10359,1.950151,0,0,0,0,690.888
7.64,-20.08114,1.946815,0,0,0,0,690.69
7.65,-20.0587,1.943475,0,0,0,0,690.5844
7.66,-20.03625,1.940133,0,0,0,0,690.3864
7.67,-20.0138,1.936789,0,0,0,0,690.2148
7.68,-19.99137,1.933444,0,0,0,0,690.0168
7.69,-19.96895,1.9301,0,0,0,0,689.7396
7.7,-19.94655,1.926756,0,0,0,0,689.5944
7.71,-19.92418,1.923413,0,0,0,0,689.4228
7.72,-19.90182,1.920073,0,0,0,0,689.2512
7.73,-19.8795,1.916735,0,0,0,0,689.0796
7.74,-19.85721,1.913401,0,0,0,0,688.8948
7.75,-19.83495,1.91007,0,0,0,0,688.6968
7.76,-19.81272,1.906742,0,0,0,0,688.5516
7.77,-19.79053,1.90342,0,0,0,0,688.3536
7.78,-19.76838,1.900102,0,0,0,0,688.1556
7.79,-19.74627,1.896788,0,0,0,0,687.9708
7.8,-19.7242,1.89348,0,0,0,0,687.7464
7.81,-19.70217,1.890178,0,0,0,0,687.6672
7.82,-19.68019,1.886881,0,0,0,0,687.4956
7.83,-19.65825,1.883589,0,0,0,0,687.2844
7.84,-19.63636,1.880304,0,0,0,0,687.0468
7.85,-19.61451,1.877025,0,0,0,0,686.928
7.86,-19.59271,1.873752,0,0,0,0,686.6772
7.87,-19.57096,1.870486,0,0,0,0,686.5584
7.88,-19.54927,1.867228,0,0,0,0,686.3868
7.89,-19.5277,1.863991,0,0,0,0,686.2284
7.9,-19.50618,1.860761,0,0,0,0,686.0568
7.91,-19.48466,1.857528,0,0,0,0,685.8588
7.92,-19.46319,1.854302,0,0,0,0,685.5948
7.93,-19.42959,1.848747,0,0,0,0,685.5156
7.94,-19.39135,1.842298,0,0,0,0,685.2516
7.95,-19.3548,1.836166,0,0,0,0,685.0668
7.96,-19.31979,1.830323,0,0,0,0,685.0668
7.97,-19.28617,1.824743,0,0,0,0,684.75
7.98,-19.25381,1.819402,0,0,0,0,684.5652
7.99,-19.22261,1.814277,0,0,0,0,684.42
8,-19.19246,1.80935,0,0,0,0,684.1956
8.01,-19.16577,1.805088,0,0,0,0,684.0768
8.02,-19.13972,1.800942,0,0,0,0,683.8656
8.03,-19.11424,1.796903,0,0,0,0,683.694
8.04,-19.08929,1.792962,0,0,0,0,683.496
8.05,-19.06481,1.789111,0,0,0,0,683.3508
8.06,-19.04078,1.78534,0,0,0,0,683.1264
8.07,-19.01714,1.781645,0,0,0,0,683.034
8.08,-18.99388,1.778018,0,0,0,0,682.7964
8.09,-18.97096,1.774453,0,0,0,0,682.6248
8.1,-18.94835,1.770946,0,0,0,0,682.4268
8.11,-18.92829,1.767929,0,0,0,0,682.2684
8.12,-18.90828,1.764919,0,0,0,0,682.1892
8.13,-18.88832,1.761916,0,0,0,0,681.9648
8.14,-18.87991,1.761149,0,0,0,0,681.6744
8.15,-18.87152,1.760384,0,0,0,0,681.5556
8.16,-18.86212,1.759424,0,0,0,0,681.3972
8.17,-18.85177,1.75828,0,0,0,0,681.1992
8.18,-18.84058,1.75697,0,0,0,0,681.054
8.19,-18.82861,1.755509,0,0,0,0,680.8692
8.2,-18.81594,1.753911,0,0,0,0,680.7636
8.21,-18.80265,1.752191,0,0,0,0,680.526
8.22,-18.78879,1.750359,0,0,0,0,680.328
8.23,-18.77442,1.748427,0,0,0,0,680.2224
8.24,-18.7596,1.746404,0,0,0,0,679.9716
8.25,-18.74437,1.7443,0,0,0,0,679.866
8.26,-18.72876,1.742122,0,0,0,0,679.7472
8.27,-18.71283,1.739878,0,0,0,0,679.5228
8.28,-18.6966,1.737575,0,0,0,0,679.3776
8.29,-18.68011,1.735218,0,0,0,0,679.1796
8.3,-18.66338,1.732813,0,0,0,0,678.9948
8.31,-18.64402,1.729891,0,0,0,0,678.8892
8.32,-18.6247,1.726975,0,0,0,0,678.5856
8.33,-18.60394,1.723776,0,0,0,0,678.6252
8.34,-18.57183,1.718352,0,0,0,0,678.3348
8.35,-18.54101,1.713174,0,0,0,0,678.1764
8.36,-18.51136,1.708222,0,0,0,0,677.9652
8.37,-18.48277,1.703474,0,0,0,0,677.7672
8.38,-18.45516,1.698912,0,0,0,0,677.5692
8.39,-18.42843,1.694519,0,0,0,0,677.5296
8.4,-18.4025,1.69028,0,0,0,0,677.2392
8.41,-18.3838,1.687456,0,0,0,0,677.1072
8.42,-18.36516,1.684642,0,0,0,0,676.962
8.43,-18.34662,1.681844,0,0,0,0,676.7508
8.44,-18.32812,1.679052,0,0,0,0,676.6452
8.45,-18.30966,1.676267,0,0,0,0,676.4604
8.46,-18.29125,1.673487,0,0,0,0,676.2624
8.47,-18.27288,1.670714,0,0,0,0,676.1436
8.48,-18.25455,1.667947,0,0,0,0,675.9192
8.49,-18.23627,1.665186,0,0,0,0,675.7608
8.5,-18.21803,1.662431,0,0,0,0,675.6552
8.51,-18.19984,1.659682,0,0,0,0,675.4704
8.52,-18.18168,1.656939,0,0,0,0,675.312
8.53,-18.16501,1.654486,0,0,0,0,675.18
8.54,-18.15524,1.653396,0,0,0,0,674.982
8.55,-18.14473,1.652157,0,0,0,0,674.784
8.56,-18.13353,1.650784,0,0,0,0,674.6388
8.57,-18.12173,1.649289,0,0,0,0,674.4936
8.58,-18.10938,1.647683,0,0,0,0,674.2164
8.59,-18.09653,1.645978,0,0,0,0,674.124
8.6,-18.08323,1.644183,0,0,0,0,673.9128
8.61,-18.06532,1.641471,0,0,0,0,673.8204
8.62,-18.04745,1.638765,0,0,0,0,673.6752
8.63,-18.02962,1.636065,0,0,0,0,673.5168
8.64,-18.01184,1.63337,0,0,0,0,673.266
8.65,-17.9941,1.630682,0,0,0,0,673.1208
8.66,-17.97639,1.628,0,0,0,0,673.0284
8.67,-17.95873,1.625323,0,0,0,0,672.8172
8.68,-17.94111,1.622652,0,0,0,0,672.6324
8.69,-17.92353,1.619987,0,0,0,0,672.474
8.7,-17.906,1.617328,0,0,0,0,672.3288
8.71,-17.88856,1.614685,0,0,0,0,672.1968
8.72,-17.87116,1.612049,0,0,0,0,671.9724
8.73,-17.8538,1.609418,0,0,0,0,671.8008
8.74,-17.83648,1.606792,0,0,0,0,671.6688
8.75,-17.81621,1.603575,0,0,0,0,671.5104
8.76,-17.79572,1.600311,0,0,0,0,671.3388
8.77,-17.77558,1.597114,0,0,0,0,671.2068
8.78,-17.75577,1.593978,0,0,0,0,671.1276
8.79,-17.73625,1.590899,0,0,0,0,670.9032
8.8,-17.717,1.587872,0,0,0,0,670.6392
8.81,-17.65355,1.575981,0,0,0,0,670.5204
8.82,-17.5947,1.565001,0,0,0,0,670.296
8.83,-17.54,1.554843,0,0,0,0,670.1772
8.84,-17.4887,1.545357,0,0,0,0,670.098
8.85,-17.44074,1.536531,0,0,0,0,669.966
8.86,-17.39588,1.528321,0,0,0,0,669.834
8.87,-17.35385,1.52067,0,0,0,0,669.5304
8.88,-17.31437,1.513525,0,0,0,0,669.4512
8.89,-17.27719,1.506837,0,0,0,0,669.2268
8.9,-17.24211,1.500565,0,0,0,0,669.1476
8.91,-17.22639,1.498187,0,0,0,0,668.976
8.92,-17.21071,1.495814,0,0,0,0,668.7516
8.93,-17.19505,1.493445,0,0,0,0,668.514
8.94,-17.18991,1.493196,0,0,0,0,668.448
8.95,-17.18415,1.492821,0,0,0,0,668.2368
8.96,-17.17748,1.492263,0,0,0,0,668.0916
8.97,-17.17,1.491541,0,0,0,0,667.9596
8.98,-17.16178,1.490669,0,0,0,0,667.7484
8.99,-17.1529,1.489662,0,0,0,0,667.7352
9,-17.14346,1.488541,0,0,0,0,667.4844
9.01,-17.15549,1.491768,0,0,0,0,667.3128
9.02,-17.16496,1.494481,0,0,0,0,667.1808
9.03,-17.17211,1.496727,0,0,0,0,666.9564
9.04,-17.17715,1.498547,0,0,0,0,666.9168
9.05,-17.18028,1.499981,0,0,0,0,666.6924
9.06,-17.18144,1.501017,0,0,0,0,666.5736
9.07,-17.18104,1.501738,0,0,0,0,666.3888
9.08,-17.17923,1.502173,0,0,0,0,666.1776
9.09,-17.17614,1.502349,0,0,0,0,666.0456
9.1,-17.17189,1.502289,0,0,0,0,665.94
9.11,-17.1666,1.502016,0,0,0,0,665.808
9.12,-17.16035,1.501548,0,0,0,0,665.6364
9.13,-17.15324,1.500905,0,0,0,0,665.4912
9.14,-17.14535,1.500103,0,0,0,0,665.2668
9.15,-17.13675,1.499157,0,0,0,0,665.214
9.16,-17.12752,1.49808,0,0,0,0,665.0952
9.17,-17.11772,1.496885,0,0,0,0,664.8972
9.18,-17.1074,1.495583,0,0,0,0,664.62
9.19,-17.09661,1.494184,0,0,0,0,664.554
9.2,-17.0854,1.492698,0,0,0,0,664.3956
9.21,-17.06987,1.490327,0,0,0,0,664.1976
9.22,-17.03096,1.483161,0,0,0,0,664.0656
9.23,-16.98913,1.475393,0,0,0,0,663.8808
9.24,-16.94991,1.46815,0,0,0,0,663.7752
9.25,-16.91305,1.461384,0,0,0,0,663.6168
9.26,-16.87832,1.455049,0,0,0,0,663.4848
9.27,-16.84553,1.449104,0,0,0,0,663.3
9.28,-16.81431,1.443478,0,0,0,0,663.1548
9.29,-16.78467,1.438169,0,0,0,0,663.0096
9.3,-16.75653,1.433164,0,0,0,0,662.8248
9.31,-16.74189,1.430933,0,0,0,0,662.6136
9.32,-16.72729,1.428707,0,0,0,0,662.5608
9.33,-16.71271,1.426485,0,0,0,0,662.376
9.34,-16.69817,1.424268,0,0,0,0,662.244
9.35,-16.68366,1.422055,0,0,0,0,662.112
9.36,-16.66917,1.419846,0,0,0,0,661.9008
9.37,-16.65473,1.417642,0,0,0,0,661.7292
9.38,-16.64175,1.415741,0,0,0,0,661.5312
9.39,-16.63039,1.414171,0,0,0,0,661.4388
9.4,-16.61878,1.412547,0,0,0,0,661.3728
9.41,-16.62328,1.414259,0,0,0,0,661.1748
9.42,-16.626,1.415603,0,0,0,0,661.056
9.43,-16.62696,1.416585,0,0,0,0,660.9372
9.44,-16.6265,1.417272,0,0,0,0,660.6996
9.45,-16.62475,1.417694,0,0,0,0,660.6072
9.46,-16.62184,1.417874,0,0,0,0,660.5016
9.47,-16.61786,1.417834,0,0,0,0,660.2112
9.48,-16.61292,1.417595,0,0,0,0,660.0792
9.49,-16.60711,1.417176,0,0,0,0,659.9604
9.5,-16.60052,1.416593,0,0,0,0,659.8284
9.51,-16.59322,1.415861,0,0,0,0,659.6304
9.52,-16.58527,1.414995,0,0,0,0,659.4984
9.53,-16.57674,1.414007,0,0,0,0,659.274
9.54,-16.56769,1.412909,0,0,0,0,659.1552
9.55,-16.55816,1.411711,0,0,0,0,659.0892
9.56,-16.54821,1.410423,0,0,0,0,658.9968
9.57,-16.53787,1.409053,0,0,0,0,658.7592
9.58,-16.52718,1.40761,0,0,0,0,658.7196
9.59,-16.51619,1.4061,0,0,0,0,658.4688
9.6,-16.50493,1.404535,0,0,0,0,658.2972
9.61,-16.49075,1.402357,0,0,0,0,658.2312
9.62,-16.47661,1.400184,0,0,0,0,657.9936
9.63,-16.4625,1.398014,0,0,0,0,657.9936
9.64,-16.44261,1.394632,0,0,0,0,657.7164
9.65,-16.42063,1.390809,0,0,0,0,657.5976
9.66,-16.39945,1.387148,0,0,0,0,657.4524
9.67,-16.37899,1.383635,0,0,0,0,657.2544
9.68,-16.35919,1.380256,0,0,0,0,657.2016
9.69,-16.33999,1.377,0,0,0,0,657.0036
9.7,-16.32133,1.373854,0,0,0,0,656.964
9.71,-16.30758,1.371739,0,0,0,0,656.6736
9.72,-16.29386,1.369628,0,0,0,0,656.5812
9.73,-16.28016,1.367521,0,0,0,0,656.3832
9.74,-16.2665,1.365418,0,0,0,0,656.2512
9.75,-16.25287,1.36332,0,0,0,0,656.1324
9.76,-16.23926,1.361225,0,0,0,0,655.9872
9.77,-16.22569,1.359134,0,0,0,0,655.8156
9.78,-16.21214,1.357047,0,0,0,0,655.7232
9.79,-16.19862,1.354964,0,0,0,0,655.6836
9.8,-16.18514,1.352886,0,0,0,0,655.4064
9.81,-16.1551,1.347301,0,0,0,0,655.2744
9.82,-16.11358,1.339279,0,0,0,0,655.0632
9.83,-16.07484,1.331836,0,0,0,0,655.0368
9.84,-16.03853,1.324901,0,0,0,0,654.8124
9.85,-16.00427,1.318393,0,0,0,0,654.654
9.86,-15.9721,1.312319,0,0,0,0,654.4956
9.87,-15.9418,1.306639,0,0,0,0,654.456
9.88,-15.91321,1.301316,0,0,0,0,654.2844
9.89,-15.88617,1.296316,0,0,0,0,654.0336
9.9,-15.86054,1.291609,0,0,0,0,654.06
9.91,-15.8479,1.289664,0,0,0,0,653.8224
9.92,-15.85338,1.291579,0,0,0,0,653.664
9.93,-15.86276,1.294327,0,0,0,0,653.532
9.94,-15.87011,1.296644,0,0,0,0,653.4264
9.95,-15.87559,1.298567,0,0,0,0,653.2416
9.96,-15.87939,1.300134,0,0,0,0,653.1492
9.97,-15.88159,1.301358,0,0,0,0,653.0304
9.98,-15.88228,1.302264,0,0,0,0,652.872
9.99,-15.88174,1.302906,0,0,0,0,652.7268
10,-15.88006,1.303307,0,0,0,0,652.5816
10.01,-15.86731,1.301337,0,0,0,0,652.4496
10.02,-15.84291,1.296868,0,0,0,0,652.212
10.03,-15.8114,1.290869,0,0,0,0,652.1328
10.04,-15.78166,1.285245,0,0,0,0,651.9876
10.05,-15.75347,1.279945,0,0,0,0,651.9216
10.06,-15.72682,1.274971,0,0,0,0,651.6444
10.07,-15.70156,1.270291,0,0,0,0,651.5784
10.08,-15.67757,1.265878,0,0,0,0,651.42
10.09,-15.65473,1.261708,0,0,0,0,651.3144
10.1,-15.63294,1.257758,0,0,0,0,651.1956
10.11,-15.62078,1.255881,0,0,0,0,651.0636
10.12,-15.62242,1.256974,0,0,0,0,650.8524
10.13,-15.62986,1.25932,0,0,0,0,650.7204
10.14,-15.63548,1.261277,0,0,0,0,650.562
10.15,-15.63945,1.262881,0,0,0,0,650.5092
10.16,-15.64188,1.264153,0,0,0,0,650.3244
10.17,-15.6428,1.265103,0,0,0,0,650.1528
10.18,-15.64251,1.26579,0,0,0,0,650.1396
10.19,-15.64111,1.266238,0,0,0,0,649.902
10.2,-15.63871,1.266471,0,0,0,0,649.77
10.21,-15.62645,1.264568,0,0,0,0,649.6116
10.22,-15.61422,1.262669,0,0,0,0,649.4796
10.23,-15.59193,1.258584,0,0,0,0,649.3872
10.24,-15.56864,1.254278,0,0,0,0,649.1628
10.25,-15.54645,1.250208,0,0,0,0,649.1364
10.26,-15.52527,1.24635,0,0,0,0,648.978
10.27,-15.50498,1.242683,0,0,0,0,648.78
10.28,-15.48542,1.23917,0,0,0,0,648.6744
10.29,-15.46662,1.235819,0,0,0,0,648.5028
10.3,-15.44851,1.232615,0,0,0,0,648.45
10.31,-15.43673,1.230786,0,0,0,0,648.2916
10.32,-15.42872,1.229779,0,0,0,0,648.1068
10.33,-15.43173,1.231176,0,0,0,0,647.988
10.34,-15.43323,1.232245,0,0,0,0,647.9088
10.35,-15.43347,1.233039,0,0,0,0,647.7108
10.36,-15.43259,1.233591,0,0,0,0,647.5788
10.37,-15.4307,1.233923,0,0,0,0,647.4336
10.38,-15.4279,1.234055,0,0,0,0,647.262
10.39,-15.42427,1.234006,0,0,0,0,647.1696
10.4,-15.41988,1.233793,0,0,0,0,647.1168
10.41,-15.41482,1.23343,0,0,0,0,646.8396
10.42,-15.40914,1.232933,0,0,0,0,646.8132
10.43,-15.40291,1.232313,0,0,0,0,646.6944
10.44,-15.39617,1.231581,0,0,0,0,646.4436
10.45,-15.38898,1.230749,0,0,0,0,646.404
10.46,-15.38138,1.229826,0,0,0,0,646.206
10.47,-15.3734,1.228821,0,0,0,0,646.14
10.48,-15.3651,1.227741,0,0,0,0,645.942
10.49,-15.35649,1.226593,0,0,0,0,645.8628
10.5,-15.34761,1.225385,0,0,0,0,645.7308
10.51,-15.33593,1.223558,0,0,0,0,645.5988
10.52,-15.32428,1.221735,0,0,0,0,645.3744
10.53,-15.31265,1.219915,0,0,0,0,645.2556
10.54,-15.30033,1.21794,0,0,0,0,645.2292
10.55,-15.28295,1.214843,0,0,0,0,645.0312
10.56,-15.26615,1.211871,0,0,0,0,644.8068
10.57,-15.2499,1.209018,0,0,0,0,644.7408
10.58,-15.23414,1.20627,0,0,0,0,644.6352
10.59,-15.21881,1.203615,0,0,0,0,644.4636
10.6,-15.20388,1.201046,0,0,0,0,644.4372
10.61,-15.19255,1.199271,0,0,0,0,644.2524
10.62,-15.18124,1.1975,0,0,0,0,644.1072
10.63,-15.16995,1.195732,0,0,0,0,643.9752
10.64,-15.15868,1.193967,0,0,0,0,643.7904
10.65,-15.15077,1.192946,0,0,0,0,643.7376
10.66,-15.14424,1.192231,0,0,0,0,643.566
10.67,-15.13728,1.191422,0,0,0,0,643.4736
10.68,-15.12994,1.190526,0,0,0,0,643.368
10.69,-15.12225,1.189552,0,0,0,0,643.1436
10.7,-15.11425,1.188507,0,0,0,0,643.0776
10.71,-15.10597,1.187399,0,0,0,0,642.9192
10.72,-15.09744,1.186233,0,0,0,0,642.774
10.73,-15.08868,1.185014,0,0,0,0,642.7212
10.74,-15.07971,1.183749,0,0,0,0,642.5892
10.75,-15.07056,1.182441,0,0,0,0,642.4176
10.76,-15.06125,1.181095,0,0,0,0,642.246
10.77,-15.05179,1.179715,0,0,0,0,642.1008
