# Time (s),Altitude (m),Vertical velocity (m/s),Vertical acceleration (m/s²),Total velocity (m/s),Total acceleration (m/s²),Position East of launch (m),Position North of launch (m),Lateral distance (m),Lateral direction (°),Lateral velocity (m/s),Lateral acceleration (m/s²),Latitude (°),Longitude (°),Gravitational acceleration (m/s²),Angle of attack (°),Roll rate (r/s),Pitch rate (r/s),Yaw rate (r/s),Mass (g),Motor mass (g),Longitudinal moment of inertia (kg·m²),Rotational moment of inertia (kg·m²),CP location (cm),CG location (cm),Stability margin calibers (​),Mach number (​),Reynolds number (​),Thrust (N),Drag force (N),Drag coefficient (​),Axial drag coefficient (​),Friction drag coefficient (​),Pressure drag coefficient (​),Base drag coefficient (​),Normal force coefficient (​),Pitch moment coefficient (​),Yaw moment coefficient (​),Side force coefficient (​),Roll moment coefficient (​),Roll forcing coefficient (​),Roll damping coefficient (​),Pitch damping coefficient (​),Coriolis acceleration (m/s²),Reference length (cm),Reference area (cm²),Vertical orientation (zenith) (°),Lateral orientation (azimuth) (°),Wind velocity (m/s),Air temperature (°C),Air pressure (mbar),Speed of sound (m/s),Simulation time step (s),Computation time (s)
# Event IGNITION occurred at t=0 seconds
# Event LAUNCH occurred at t=0 seconds
0.002,-0.0000078,-0.0078298,-3.9147167,0.0078489,3.9242761,-0.0000005,0,0.0000005,180,0.0005475,0.2737437,33,-107,9.7913953,86.0772888,0,0,0,29659.2887309,8106.2636492,20.1875746,0.1117395,NaN,171.0991212,NaN,0.0173306,1002299.7176079,173.3072857,0.0001194,0.4390084,0.0003399,0.3555094,0.0130416,0.0704574,NaN,NaN,NaN,NaN,NaN,NaN,NaN,NaN,0.000001,15.748,194.778355,86,0,5.8049191,5.9780001,857.4736005,334.921568,0.002,0.0338389
0.004,0.0000155,0.0154877,7.7443817,0.0155256,7.7632927,0.0000011,0,0.0000011,0,0.001083,0.5415399,33,-107,9.7913953,85.8472251,0,0,0,29657.5523801,8104.5272983,20.1864208,0.1117375,NaN,171.094501,NaN,0.0173427,1003000.781801,519.9218571,0.0001415,0.4389589,0.0004023,0.3554601,0.0130414,0.0704574,NaN,NaN,NaN,NaN,NaN,NaN,NaN,NaN,0.0000019,15.748,194.778355,86,0,5.8073331,5.9779999,857.473598,334.9215679,0.002,0.0402183
0.006,0.0000853,0.0542957,19.4048445,0.0544283,19.4522292,0.000006,0,0.000006,0,0.0037967,1.3569189,33,-107,9.7913953,85.4649003,0,0,0,29655.8160293,8102.7909475,20.1852669,0.1117354,NaN,171.0898802,NaN,0.0173587,1003926.451446,866.5364286,0.0001838,0.4388937,0.0005217,0.3553951,0.0130412,0.0704574,NaN,NaN,NaN,NaN,NaN,NaN,NaN,NaN,0.0000067,15.748,194.778355,86,0,5.8097472,5.9779994,857.4735906,334.9215677,0.002,0.0447216
0.008,0.000256,0.1164267,31.0666711,0.116711,31.1425327,0.0000179,0,0.0000179,0,0.0081413,2.1723933,33,-107,9.7913953,84.8540342,0,0,0,29654.0796785,8101.0545967,20.1841129,0.1117333,NaN,171.0852588,NaN,0.0173816,1005250.799916,1213.151,0.0002674,0.4388005,0.000757,0.3553022,0.0130408,0.0704575,NaN,NaN,NaN,NaN,NaN,NaN,NaN,NaN,0.0000143,15.748,194.778355,86,0,5.8121612,5.9779983,857.4735724,334.921567,0.002,0.0501567
0.01,0.0005743,0.2018833,42.7298607,0.2023763,42.8342027,0.0000402,0,0.0000402,0,0.0141171,2.9879629,33,-107,9.7913953,84.016289,0,0,0,29652.3433276,8099.3182458,20.1829588,0.1117312,NaN,171.080637,NaN,0.0174136,1007102.0002702,1559.7655714,0.000418,0.4386705,0.001179,0.3551726,0.0130403,0.0704576,NaN,NaN,NaN,NaN,NaN,NaN,NaN,NaN,0.0000248,15.748,194.778355,86,0,5.8145752,5.9779963,857.4735386,334.9215657,0.002,0.0547113
0.012,0.0010869,0.3106684,54.3944123,0.311427,54.5272379,0.000076,0,0.000076,0,0.0217241,3.8036278,33,-107,9.7913953,82.9542571,0,0,0,29650.6069768,8097.581895,20.1818045,0.1117291,NaN,171.0760145,NaN,0.0174577,1009655.0448891,1906.3801429,0.0006776,0.4384917,0.0019017,0.3549943,0.0130396,0.0704577,NaN,NaN,NaN,NaN,NaN,NaN,NaN,NaN,0.0000381,15.748,194.778355,86,0,5.8169892,5.9779929,857.473484,334.9215637,0.002,0.0596942
0.014,0.0018403,0.4427846,66.0603239,0.4438659,66.2216365,0.0001287,0,0.0001287,0,0.0309625,4.6193878,33,-107,9.7913953,81.6718234,0,0,0,29648.870626,8095.8455442,20.1806501,0.111727,NaN,171.0713916,NaN,0.0175178,1013130.2348036,2252.9947143,0.0011101,0.4382492,0.0030943,0.3547526,0.0130387,0.0704579,NaN,NaN,NaN,NaN,NaN,NaN,NaN,NaN,0.0000543,15.748,194.778355,86,0,5.8194033,5.977988,857.4734039,334.9215608,0.002,0.0646422
0.016,0.0028813,0.5982347,77.7275927,0.5996956,77.9173955,0.0002015,0,0.0002015,0,0.0418326,5.4352428,33,-107,9.7913953,80.174595,0,0,0,29647.1342751,8094.1091934,20.1794956,0.1117249,NaN,171.0667681,NaN,0.0175984,1017790.8232667,2599.6092857,0.0018075,0.4379258,0.004992,0.3544302,0.0130375,0.0704581,NaN,NaN,NaN,NaN,NaN,NaN,NaN,NaN,0.0000734,15.748,194.778355,86,0,5.8218173,5.9779813,857.4732931,334.9215567,0.002,0.0695829
0.018,0.0042566,0.7770214,89.3962146,0.7789188,89.6145111,0.0002976,0,0.0002976,0,0.0543346,6.2511923,33,-107,9.7913953,78.4703647,0,0,0,29645.3979243,8092.3728425,20.1783409,0.1117229,NaN,171.062144,NaN,0.0177047,1023939.5405864,2946.2238571,0.0028956,0.437502,0.0079014,0.3540077,0.013036,0.0704584,NaN,NaN,NaN,NaN,NaN,NaN,NaN,NaN,0.0000954,15.748,194.778355,86,0,5.8242313,5.9779723,857.4731469,334.9215512,0.002,0.0739021
0.02,0.0060127,0.9791473,101.0661844,0.9815383,101.3129778,0.0004205,0,0.0004205,0,0.0684687,7.0672361,33,-107,9.7913953,76.5695649,0,0,0,29643.6615735,8090.6364917,20.1771862,0.1117208,NaN,171.0575194,NaN,0.0178426,1031913.74092,3292.8384286,0.0045397,0.4369573,0.0121972,0.3534647,0.0130339,0.0704587,NaN,NaN,NaN,NaN,NaN,NaN,NaN,NaN,0.0001202,15.748,194.778355,86,0,5.8266454,5.9779609,857.4729601,334.9215443,0.002,0.0781329
0.022,0.0081934,1.2015323,111.1987276,1.2044664,111.4702636,0.0005729,0,0.0005729,0,0.0840193,7.7757725,33,-107,9.7913953,74.5139406,0,0,0,29641.1236747,8088.0985929,20.1754981,0.1117177,NaN,171.050759,NaN,0.0180159,1041936.3136469,3593.6323661,0.0069108,0.4362804,0.0182123,0.3527898,0.0130314,0.0704592,NaN,NaN,NaN,NaN,NaN,NaN,NaN,NaN,0.0001475,15.748,194.778355,86,0,5.8290594,5.9779467,857.4727281,334.9215357,0.002,0.0824366
0.024,0.0108206,1.4256847,112.0829993,1.4291661,112.3566945,0.0007567,0,0.0007567,0,0.0996936,7.8376068,33,-107,9.7913953,72.4841312,0,0,0,29637.7842279,8084.7591461,20.1732764,0.1117137,NaN,171.0418617,NaN,0.0182135,1053365.6437115,3619.5025,0.0099498,0.4355188,0.0256551,0.3520304,0.0130286,0.0704598,NaN,NaN,NaN,NaN,NaN,NaN,NaN,NaN,0.000175,15.748,194.778355,86,0,5.8314734,5.9779297,857.4724486,334.9215254,0.002,0.0865501
0.026,0.0138948,1.6485212,111.4250189,1.6525468,111.6971074,0.0009716,0,0.0009716,0,0.1152758,7.7915963,33,-107,9.7913953,70.5118749,0,0,0,29634.4447812,8081.4196994,20.1710543,0.1117097,NaN,171.0329624,NaN,0.0184322,1066011.593077,3599.552,0.0136615,0.4346884,0.0343948,0.3512025,0.0130256,0.0704604,NaN,NaN,NaN,NaN,NaN,NaN,NaN,NaN,0.0002023,15.748,194.778355,86,0,5.8338874,5.9779097,857.4721216,334.9215133,0.002,0.0904108
0.028,0.0174134,1.8700416,110.7668668,1.874608,111.0373482,0.0012177,0,0.0012177,0,0.130766,7.7455739,33,-107,9.7913953,68.599336,0,0,0,29631.1053344,8078.0802526,20.1688318,0.1117057,NaN,171.024061,NaN,0.0186707,1079807.0129261,3579.6015,0.0180694,0.4337971,0.0443374,0.3503137,0.0130224,0.070461,NaN,NaN,NaN,NaN,NaN,NaN,NaN,NaN,0.0002295,15.748,194.778355,86,0,5.8363015,5.9778868,857.4717474,334.9214994,0.002,0.0946324
# Event LIFTOFF occurred at t=0.03 seconds
0.03,0.0213737,2.0902453,110.1085425,2.0953495,110.3774163,0.0014946,0,0.0014946,0,0.1461642,7.6995393,33,-107,9.7913953,66.7480225,0,0,0,29627.7658876,8074.7408059,20.1666087,0.1117017,NaN,171.0151577,NaN,0.018928,1094684.458582,3559.651,0.0231879,0.4328523,0.0553607,0.3493715,0.013019,0.0704618,NaN,NaN,NaN,NaN,NaN,NaN,NaN,NaN,0.0002566,15.748,194.778355,86,0,5.8387155,5.9778611,857.4713261,334.9214838,0.002,0.0989133
0.032,0.025773,2.3091322,109.4500456,2.3147708,109.7173115,0.0018022,0,0.0018022,0,0.1614703,7.6534928,33,-107,9.7913953,64.9588308,0,0,0,29624.4264409,8071.4013591,20.1643852,0.1116977,NaN,171.0062523,NaN,0.0192028,1110576.9327908,3539.7005,0.0290237,0.4318612,0.0673244,0.3483832,0.0130154,0.0704626,NaN,NaN,NaN,NaN,NaN,NaN,NaN,NaN,0.0002834,15.748,194.778355,86,0,5.8411295,5.9778325,857.4708581,334.9214665,0.002,0.103577
0.034,0.0306089,2.5267018,108.7913761,2.5328717,109.0570336,0.0021404,0,0.0021404,0,0.1766842,7.6074341,33,-107,9.7913953,63.2321084,0,0,0,29621.0869941,8068.0619123,20.1621612,0.1116937,NaN,170.997345,NaN,0.019494,1127418.47958,3519.75,0.0355769,0.4308308,0.0800782,0.3473557,0.0130117,0.0704634,NaN,NaN,NaN,NaN,NaN,NaN,NaN,NaN,0.0003101,15.748,194.778355,86,0,5.8435436,5.977801,857.4703437,334.9214474,0.002,0.1080104
0.036,0.0358785,2.7429538,108.1325341,2.7496518,108.3965827,0.0025089,0,0.0025089,0,0.191806,7.5613634,33,-107,9.7913952,61.5677188,0,0,0,29617.7475473,8064.7224656,20.1599367,0.1116897,NaN,170.9884356,NaN,0.0198005,1145144.67809,3499.7995,0.0428422,0.4297677,0.0934691,0.3462954,0.013008,0.0704644,NaN,NaN,NaN,NaN,NaN,NaN,NaN,NaN,0.0003367,15.748,194.778355,86,0,5.8459576,5.9777668,857.4697832,334.9214267,0.002,0.111796
0.038,0.0415794,2.9578879,107.4735199,2.9651108,107.7359593,0.0029075,0,0.0029075,0,0.2068357,7.5152806,33,-107,9.7913952,59.9651084,0,0,0,29614.4081006,8061.3830188,20.1577118,0.1116857,NaN,170.9795242,NaN,0.0201213,1163693.039649,3479.849,0.0508098,0.4286779,0.1073464,0.3452084,0.0130042,0.0704653,NaN,NaN,NaN,NaN,NaN,NaN,NaN,NaN,0.000363,15.748,194.778355,86,0,5.8483716,5.9777297,857.4691768,334.9214042,0.002,0.1158655
0.04,0.0477088,3.1715037,106.8143339,3.1792482,107.0751636,0.0033361,0,0.0033361,0,0.2217731,7.4691858,33,-107,9.7913952,58.4233707,0,0,0,29611.0686538,8058.043572,20.1554864,0.1116817,NaN,170.9706109,NaN,0.0204552,1183003.3144805,3459.8985,0.0594662,0.427567,0.1215667,0.3441003,0.0130003,0.0704664,NaN,NaN,NaN,NaN,NaN,NaN,NaN,NaN,0.0003893,15.748,194.778355,86,0,5.8507856,5.9776899,857.4685248,334.9213801,0.002,0.1198738
0.042,0.0542641,3.3838009,106.1549765,3.3920638,106.4141961,0.0037945,0,0.0037945,0,0.2366184,7.4230791,33,-107,9.7913952,56.9413076,0,0,0,29607.7292071,8054.7041253,20.1532605,0.1116776,NaN,170.9616955,NaN,0.0208012,1203017.7165075,3439.948,0.0687948,0.4264401,0.1359965,0.3429761,0.0129965,0.0704675,NaN,NaN,NaN,NaN,NaN,NaN,NaN,NaN,0.0004153,15.748,194.778355,86,0,5.8531997,5.9776473,857.4678275,334.9213543,0.002,0.123625
0.044,0.0612426,3.5947792,105.4954484,3.6035573,105.7530575,0.0042825,0,0.0042825,0,0.2513714,7.3769604,33,-107,9.7913952,55.5174858,0,0,0,29604.3897603,8051.3646785,20.1510342,0.1116736,NaN,170.9527781,NaN,0.0211585,1223681.0758672,3419.9975,0.0787768,0.4253019,0.1505144,0.3418406,0.0129926,0.0704686,NaN,NaN,NaN,NaN,NaN,NaN,NaN,NaN,0.0004412,15.748,194.778355,86,0,5.8556137,5.9776019,857.4670852,334.9213268,0.002,0.127463
0.046,0.0686418,3.8044381,104.8357502,3.8137282,105.0917484,0.0047999,0,0.0047999,0,0.2660322,7.3308298,33,-106.9999999,9.7913951,54.1502881,0,0,0,29601.0503135,8048.0252318,20.1488074,0.1116696,NaN,170.9438587,NaN,0.0215262,1244940.9291712,3400.047,0.0893917,0.4241565,0.1650121,0.3406979,0.0129888,0.0704698,NaN,NaN,NaN,NaN,NaN,NaN,NaN,NaN,0.0004669,15.748,194.778355,86,0,5.8580277,5.9775538,857.4662981,334.9212976,0.002,0.1312248
0.048,0.0764591,4.0127774,104.1758825,4.0225762,104.4302694,0.0053465,0,0.0053465,0,0.2806007,7.2846873,33,-106.9999999,9.7913951,52.837959,0,0,0,29597.7108668,8044.685785,20.1465801,0.1116656,NaN,170.9349372,NaN,0.0219032,1266747.5573956,3380.0965,0.1006175,0.4230076,0.1793946,0.3395516,0.012985,0.0704711,NaN,NaN,NaN,NaN,NaN,NaN,NaN,NaN,0.0004925,15.748,194.778355,86,0,5.8604418,5.977503,857.4654666,334.9212668,0.002,0.1351526
0.05,0.0846918,4.2199487,103.5915449,4.2302533,103.8445049,0.0059222,0,0.0059222,0,0.2950876,7.2438265,33,-106.9999999,9.7913951,51.5777277,0,0,0,29594.4521806,8041.4270988,20.1444062,0.1116617,NaN,170.9262296,NaN,0.0222892,1289070.3326117,3362.4009133,0.1124405,0.4218578,0.193591,0.3384043,0.0129812,0.0704724,NaN,NaN,NaN,NaN,NaN,NaN,NaN,NaN,0.0005179,15.748,194.778355,86,0,5.8628558,5.9774495,857.4645909,334.9212344,0.002,0.1384059
0.052,0.0933386,4.4268626,103.4628474,4.4376726,103.7154932,0.0065269,0,0.0065269,0,0.3095564,7.2348271,33,-106.9999999,9.7913951,50.3578399,0,0,0,29591.2742549,8038.2491732,20.1422858,0.1116579,NaN,170.9177359,NaN,0.0226826,1311819.1041794,3358.2348065,0.1249028,0.4207123,0.2076537,0.3372611,0.0129775,0.0704737,NaN,NaN,NaN,NaN,NaN,NaN,NaN,NaN,0.0005433,15.748,194.778355,86,0,5.8642171,5.9773933,857.4636711,334.9212003,0.002,0.1417357
0.054,0.1023991,4.6336712,103.4101256,4.6449861,103.6626426,0.0071604,0,0.0071604,0,0.3240179,7.2311404,33,-106.9999999,9.791395,49.1806465,0,0,0,29588.0963293,8035.0712475,20.1401649,0.1116541,NaN,170.9092405,NaN,0.0230857,1335130.1215081,3356.3236129,0.1379935,0.4195648,0.2214759,0.3361159,0.0129738,0.0704751,NaN,NaN,NaN,NaN,NaN,NaN,NaN,NaN,0.0005687,15.748,194.778355,86,0,5.8655783,5.9773344,857.4627073,334.9211646,0.002,0.1450747
0.056,0.1118732,4.8403742,103.3573718,4.8521939,103.6097599,0.0078229,0,0.0078229,0,0.3384719,7.2274515,33,-106.9999999,9.791395,48.0448895,0,0,0,29584.9184036,8031.8933219,20.1380436,0.1116503,NaN,170.9007432,NaN,0.023498,1358972.9821189,3354.4124194,0.1516993,0.4184177,0.2350048,0.3349709,0.0129702,0.0704766,NaN,NaN,NaN,NaN,NaN,NaN,NaN,NaN,0.0005941,15.748,194.778355,86,0,5.8669396,5.9772728,857.4616995,334.9211273,0.002,0.1477781
0.058,0.1217605,5.0469717,103.3045863,5.0592959,103.5568456,0.0085143,0,0.0085143,0,0.3529186,7.2237604,33,-106.9999999,9.791395,46.9492666,0,0,0,29581.740478,8028.7153962,20.1359219,0.1116464,NaN,170.892244,NaN,0.023919,1383318.751763,3352.5012258,0.1660066,0.4172729,0.2481965,0.3338281,0.0129667,0.0704781,NaN,NaN,NaN,NaN,NaN,NaN,NaN,NaN,0.0006195,15.748,194.778355,86,0,5.8683009,5.9772086,857.4606478,334.9210884,0.002,0.152181
0.06,0.1320609,5.2534637,103.2517697,5.2662921,103.5039,0.0092346,0,0.0092346,0,0.367358,7.2200671,33,-106.9999999,9.791395,45.8924486,0,0,0,29578.5625524,8025.5374706,20.1337998,0.1116426,NaN,170.8837431,NaN,0.0243482,1408139.9364549,3350.5900323,0.1809017,0.4161322,0.261015,0.3326894,0.0129632,0.0704797,NaN,NaN,NaN,NaN,NaN,NaN,NaN,NaN,0.0006448,15.748,194.778355,86,0,5.8696621,5.9771416,857.4595521,334.9210478,0.002,0.1554978
0.062,0.1427742,5.4598499,103.1989223,5.4731823,103.4509236,0.0099837,0,0.0099837,0,0.3817899,7.2163716,33,-106.9999999,9.7913949,44.8730928,0,0,0,29575.3846267,8022.3595449,20.1316772,0.1116388,NaN,170.8752403,NaN,0.0247851,1433410.4541494,3348.6788387,0.1963705,0.4149973,0.2734319,0.3315562,0.0129598,0.0704813,NaN,NaN,NaN,NaN,NaN,NaN,NaN,NaN,0.0006701,15.748,194.778355,86,0,5.8710234,5.977072,857.4584126,334.9210056,0.002,0.1597945
0.064,0.1539002,5.6661304,103.1460447,5.6799665,103.3979169,0.0107618,0,0.0107618,0,0.3962144,7.2126741,33,-106.9999999,9.7913949,43.889855,0,0,0,29572.2067011,8019.1816193,20.1295542,0.111635,NaN,170.8667357,NaN,0.0252295,1459105.5974466,3346.7676452,0.212399,0.4138695,0.2854255,0.3304301,0.0129564,0.070483,NaN,NaN,NaN,NaN,NaN,NaN,NaN,NaN,0.0006954,15.748,194.778355,86,0,5.8723847,5.9769996,857.4572291,334.9209618,0.002,0.1643105
0.066,0.1654386,5.8723051,103.0931374,5.8866447,103.3448803,0.0115686,0,0.0115686,0,0.4106316,7.2089744,33,-106.9999999,9.7913949,42.9413991,0,0,0,29569.0287754,8016.0036937,20.1274308,0.1116312,NaN,170.8582292,NaN,0.0256807,1485201.9894759,3344.8564516,0.2289733,0.4127501,0.29698,0.3293122,0.0129531,0.0704848,NaN,NaN,NaN,NaN,NaN,NaN,NaN,NaN,0.0007208,15.748,194.778355,86,0,5.8737459,5.9769246,857.4560017,334.9209163,0.002,0.1671112
0.068,0.1773893,6.078374,103.0402007,6.0932167,103.2918144,0.0124043,0,0.0124043,0,0.4250413,7.2052727,33,-106.9999999,9.7913948,42.0264057,0,0,0,29565.8508498,8012.825768,20.1253069,0.1116274,NaN,170.8497209,NaN,0.0261385,1511677.534796,3342.9452581,0.2460796,0.4116401,0.3080849,0.3282035,0.01295,0.0704866,NaN,NaN,NaN,NaN,NaN,NaN,NaN,NaN,0.000746,15.748,194.778355,86,0,5.8751072,5.976847,857.4547305,334.9208693,0.002,0.1700813
0.07,0.189752,6.2843369,102.9872352,6.2996826,103.2387195,0.0132688,0,0.0132688,0,0.4394436,7.201569,33,-106.9999999,9.7913948,41.1435782,0,0,0,29562.6729241,8009.6478424,20.1231827,0.1116236,NaN,170.8412108,NaN,0.0266026,1538511.3668664,3341.0340645,0.2637045,0.4105404,0.3187344,0.3271051,0.0129469,0.0704884,NaN,NaN,NaN,NaN,NaN,NaN,NaN,NaN,0.0007713,15.748,194.778355,86,0,5.8764685,5.9767666,857.4534155,334.9208206,0.002,0.1727272
0.072,0.2025266,6.4901939,102.9342412,6.5060423,103.1855961,0.014162,0,0.014162,0,0.4538386,7.1978633,33,-106.9999998,9.7913947,40.2916484,0,0,0,29559.4949985,8006.4699167,20.1210579,0.1116197,NaN,170.8326989,NaN,0.0270724,1565683.7933858,3339.122871,0.2818347,0.4094517,0.3289264,0.3260175,0.0129439,0.0704904,NaN,NaN,NaN,NaN,NaN,NaN,NaN,NaN,0.0007966,15.748,194.778355,86,0,5.8778297,5.9766836,857.4520566,334.9207702,0.002,0.1752312
0.074,0.2157127,6.6959449,102.8812192,6.7122957,103.1324446,0.0150841,0,0.0150841,0,0.4682261,7.1941557,33,-106.9999998,9.7913947,39.4693807,0,0,0,29556.3170729,8003.2919911,20.1189328,0.1116159,NaN,170.8241851,NaN,0.0275478,1593176.2405609,3337.2116774,0.3004572,0.4083748,0.3386624,0.3249415,0.012941,0.0704923,NaN,NaN,NaN,NaN,NaN,NaN,NaN,NaN,0.0008218,15.748,194.778355,86,0,5.879191,5.9765979,857.450654,334.9207183,0.002,0.1790924
0.076,0.2293102,6.9015898,102.8281696,6.9184427,103.0792655,0.0160349,0,0.0160349,0,0.4826062,7.1904461,33,-106.9999998,9.7913947,38.6755747,0,0,0,29553.1391472,8000.1140654,20.1168072,0.1116121,NaN,170.8156695,NaN,0.0280285,1620971.1971728,3335.3004839,0.3195593,0.4073101,0.3479466,0.3238776,0.0129381,0.0704944,NaN,NaN,NaN,NaN,NaN,NaN,NaN,NaN,0.0008471,15.748,194.778355,86,0,5.8805523,5.9765095,857.4492076,334.9206647,0.002,0.1824637
0.078,0.2433189,7.1071285,102.7750928,7.1244834,103.0260591,0.0170145,0,0.0170145,0,0.4969788,7.1867346,33,-106.9999998,9.7913946,37.909068,0,0,0,29549.9612216,7996.9361398,20.1146812,0.1116083,NaN,170.8071521,NaN,0.0285141,1649052.1591259,3333.3892903,0.3391289,0.4062581,0.3567856,0.3228263,0.0129354,0.0704965,NaN,NaN,NaN,NaN,NaN,NaN,NaN,NaN,0.0008723,15.748,194.778355,86,0,5.8819135,5.9764184,857.4477175,334.9206096,0.002,0.1853884
0.08,0.2577386,7.3125611,102.7219893,7.3304176,102.9728259,0.0180228,0,0.0180228,0,0.5113441,7.1830212,33,-106.9999998,9.7913946,37.1687377,0,0,0,29546.7832959,7993.7582142,20.1125548,0.1116045,NaN,170.7986329,NaN,0.0290043,1677403.5750232,3331.4780968,0.3591539,0.4052192,0.3651879,0.3217878,0.0129328,0.0704986,NaN,NaN,NaN,NaN,NaN,NaN,NaN,NaN,0.0008975,15.748,194.778355,86,0,5.8832748,5.9763247,857.4461836,334.9205528,0.002,0.1878607
0.082,0.2725691,7.5178874,102.6688593,7.5362453,102.9195662,0.0190599,0,0.0190599,0,0.5257019,7.179306,33,-106.9999998,9.7913945,36.4535011,0,0,0,29543.6053703,7990.5802885,20.110428,0.1116007,NaN,170.7901118,NaN,0.029499,1706010.793177,3329.5669032,0.379623,0.4041936,0.3731637,0.3207626,0.0129302,0.0705008,NaN,NaN,NaN,NaN,NaN,NaN,NaN,NaN,0.0009227,15.748,194.778355,86,0,5.8846361,5.9762283,857.4446061,334.9204944,0.002,0.1905621
0.084,0.2878101,7.7231074,102.6157033,7.7419665,102.8662804,0.0201256,0,0.0201256,0,0.5400523,7.175589,33,-106.9999998,9.7913945,35.7623161,0,0,0,29540.4274446,7987.4023629,20.1083007,0.1115968,NaN,170.7815888,NaN,0.0299979,1734860.0103662,3327.6557097,0.4005249,0.4031816,0.3807244,0.3197507,0.0129278,0.0705031,NaN,NaN,NaN,NaN,NaN,NaN,NaN,NaN,0.0009479,15.748,194.778355,86,0,5.8859973,5.9761292,857.4429849,334.9204343,0.002,0.1927577
0.086,0.3034614,7.9282211,102.5625216,7.947581,102.8129688,0.0212201,0,0.0212201,0,0.5543952,7.1718702,33,-106.9999998,9.7913944,35.0941817,0,0,0,29537.249519,7984.2244372,20.106173,0.111593,NaN,170.7730641,NaN,0.0305008,1763938.2225557,3325.7445161,0.4218489,0.4021832,0.3878822,0.3187524,0.0129254,0.0705054,NaN,NaN,NaN,NaN,NaN,NaN,NaN,NaN,0.0009731,15.748,194.778355,86,0,5.8873586,5.9760275,857.44132,334.9203727,0.002,0.1960631
0.088,0.3195228,8.1332284,102.5093145,8.1530889,102.7596318,0.0223432,0,0.0223432,0,0.5687307,7.1681496,33,-106.9999998,9.7913944,34.4481374,0,0,0,29534.0715934,7981.0465116,20.1040448,0.1115892,NaN,170.7645375,NaN,0.0310074,1793233.1777282,3323.8333226,0.4435848,0.4011987,0.3946501,0.3177677,0.0129232,0.0705078,NaN,NaN,NaN,NaN,NaN,NaN,NaN,NaN,0.0009983,15.748,194.778355,86,0,5.8887199,5.9759231,857.4396116,334.9203094,0.002,0.1986405
0.09,0.3359942,8.3381293,102.4560824,8.3584901,102.7062697,0.023495,0,0.023495,0,0.5830588,7.1644272,33,-106.9999997,9.7913944,33.8232624,0,0,0,29530.8936677,7977.8685859,20.1019163,0.1115854,NaN,170.7560091,NaN,0.0315175,1822733.3309148,3321.922129,0.4657224,0.4002279,0.4010417,0.3167966,0.012921,0.0705102,NaN,NaN,NaN,NaN,NaN,NaN,NaN,NaN,0.0010234,15.748,194.778355,86,0,5.8900811,5.975816,857.4378595,334.9202445,0.002,0.2011866
0.092,0.3528752,8.5429236,102.4028257,8.5637846,102.6528829,0.0246754,0,0.0246754,0,0.5973794,7.1607031,33,-106.9999997,9.7913943,33.2186752,0,0,0,29527.7157421,7974.6906603,20.0997873,0.1115816,NaN,170.7474788,NaN,0.032031,1852427.8014675,3320.0109355,0.4882522,0.399271,0.4070708,0.3158393,0.012919,0.0705127,NaN,NaN,NaN,NaN,NaN,NaN,NaN,NaN,0.0010485,15.748,194.778355,86,0,5.8914424,5.9757063,857.4360638,334.920178,0.002,0.2034662
0.094,0.3701658,8.7476114,102.3495445,8.7689722,102.5994716,0.0258845,0,0.0258845,0,0.6116926,7.1569773,33,-106.9999997,9.7913942,32.6335324,0,0,0,29524.5378164,7971.5127347,20.0976578,0.1115778,NaN,170.7389467,NaN,0.0325477,1882306.3325762,3318.0997419,0.5111651,0.3983279,0.4127512,0.3148957,0.012917,0.0705153,NaN,NaN,NaN,NaN,NaN,NaN,NaN,NaN,0.0010737,15.748,194.778355,86,0,5.8928037,5.9755939,857.4342246,334.9201099,0.002,0.20716
0.096,0.3878656,8.9521926,102.2962392,8.974053,102.5460362,0.0271222,0,0.0271222,0,0.6259983,7.1532499,33,-106.9999997,9.7913942,32.0670277,0,0,0,29521.3598908,7968.334809,20.095528,0.111574,NaN,170.7304128,NaN,0.0330674,1912359.2530073,3316.1885484,0.5344522,0.3973986,0.4180971,0.3139656,0.0129151,0.0705179,NaN,NaN,NaN,NaN,NaN,NaN,NaN,NaN,0.0010988,15.748,194.778355,86,0,5.8941649,5.9754789,857.4323419,334.9200402,0.002,0.2109299
0.098,0.4059744,9.1566672,102.24291,9.1790268,102.4925768,0.0283885,0,0.0283885,0,0.6402965,7.1495207,33,-106.9999997,9.7913941,31.5183909,0,0,0,29518.1819651,7965.1568834,20.0933977,0.1115701,NaN,170.721877,NaN,0.03359,1942577.4410145,3314.2773548,0.5581049,0.396483,0.4231223,0.3130491,0.0129133,0.0705205,NaN,NaN,NaN,NaN,NaN,NaN,NaN,NaN,0.0011239,15.748,194.778355,86,0,5.8955262,5.9753612,857.4304156,334.9199689,0.002,0.2134485
0.1,0.4244921,9.3610351,102.1895573,9.3838938,102.4390938,0.0296834,0,0.0296834,0,0.6545873,7.14579,33,-106.9999997,9.7913941,30.9868862,0,0,0,29515.0040395,7961.9789577,20.091267,0.1115663,NaN,170.7133394,NaN,0.0341153,1972952.2903612,3312.3661613,0.5821152,0.3955809,0.4278406,0.312146,0.0129117,0.0705232,NaN,NaN,NaN,NaN,NaN,NaN,NaN,NaN,0.001149,15.748,194.778355,86,0,5.8968875,5.9752408,857.4284458,334.9198959,0.002,0.2159399
0.102,0.4434184,9.5652962,102.136181,9.5886537,102.3855871,0.0310068,0,0.0310068,0,0.6688707,7.1420575,33,-106.9999997,9.791394,30.4613099,0,0,0,29511.8261139,7958.8010321,20.0891358,0.1115625,NaN,170.7047999,NaN,0.0346388,2003223.6360133,3310.4549677,0.6064862,0.3946995,0.4323822,0.3112634,0.0129101,0.070526,NaN,NaN,NaN,NaN,NaN,NaN,NaN,NaN,0.001174,15.748,194.778355,86,0,5.8956695,5.9751178,857.4264326,334.9198214,0.002,0.2185398
0.104,0.4627532,9.7694506,102.0827817,9.7933066,102.3320574,0.0323589,0,0.0323589,0,0.6831465,7.1383235,33,-106.9999997,9.791394,29.9516845,0,0,0,29508.6481882,7955.6231064,20.0870042,0.1115587,NaN,170.6962586,NaN,0.0351648,2033642.3372259,3308.5437742,0.6311953,0.3938309,0.4366363,0.3103935,0.0129086,0.0705288,NaN,NaN,NaN,NaN,NaN,NaN,NaN,NaN,0.0011991,15.748,194.778355,86,0,5.8944516,5.9749921,857.424376,334.9197452,0.002,0.2211016
0.106,0.4824961,9.9734981,102.0293597,9.9978524,102.278505,0.0337394,0,0.0337394,0,0.6974149,7.1345878,33,-106.9999996,9.7913939,29.4573718,0,0,0,29505.4702626,7952.4451808,20.0848722,0.1115549,NaN,170.6877155,NaN,0.0356933,2064200.9122135,3306.6325806,0.6562349,0.392975,0.4406158,0.3095362,0.0129072,0.0705317,NaN,NaN,NaN,NaN,NaN,NaN,NaN,NaN,0.0012241,15.748,194.778355,86,0,5.8932336,5.9748638,857.4222759,334.9196674,0.002,0.2232714
0.108,0.5026471,10.1774388,101.9759153,10.202291,102.2249301,0.0351485,0,0.0351485,0,0.7116758,7.1308507,33,-106.9999996,9.7913938,28.9777624,0,0,0,29502.2923369,7949.2672551,20.0827398,0.1115511,NaN,170.6791705,NaN,0.0362241,2094892.2865143,3304.7213871,0.6815978,0.3921317,0.4443333,0.3086913,0.0129058,0.0705346,NaN,NaN,NaN,NaN,NaN,NaN,NaN,NaN,0.0012492,15.748,194.778355,86,0,5.8920157,5.9747328,857.4201324,334.9195881,0.002,0.2254636
0.11,0.5232058,10.3812725,101.9224487,10.4066225,102.1713329,0.0365861,0,0.0365861,0,0.7259293,7.1271119,33,-106.9999996,9.7913938,28.5122745,0,0,0,29499.1144113,7946.0893295,20.0806069,0.1115472,NaN,170.6706237,NaN,0.036757,2125709.7682608,3302.8101935,0.707277,0.3913008,0.447801,0.3078586,0.0129046,0.0705375,NaN,NaN,NaN,NaN,NaN,NaN,NaN,NaN,0.0012742,15.748,194.778355,86,0,5.8907977,5.9745992,857.4179455,334.9195071,0.002,0.2275937
0.112,0.5441721,10.5850269,101.8828607,10.6108745,102.1316483,0.0380522,0,0.0380522,0,0.7401772,7.1243436,33,-106.9999996,9.7913937,28.0602925,0,0,0,29495.9082194,7942.8831376,20.0784546,0.1115434,NaN,170.661999,NaN,0.0372921,2156651.238662,3301.3068545,0.7332694,0.3904819,0.4510312,0.307038,0.0129034,0.0705406,NaN,NaN,NaN,NaN,NaN,NaN,NaN,NaN,0.0012992,15.748,194.778355,86,0,5.8895798,5.9744629,857.4157153,334.9194245,0.002,0.2301617
0.114,0.565546,10.7888678,101.9261319,10.8152132,102.1750252,0.0395468,0,0.0395468,0,0.7544311,7.1273695,33,-106.9999996,9.7913937,27.6209422,0,0,0,29492.6737613,7939.6486796,20.0762829,0.1115395,NaN,170.6532964,NaN,0.0378297,2187736.2134344,3302.2506426,0.7595903,0.3896744,0.4540376,0.3062284,0.0129023,0.0705436,NaN,NaN,NaN,NaN,NaN,NaN,NaN,NaN,0.0013242,15.748,194.778355,86,0,5.8883618,5.974324,857.4134418,334.9193403,0.002,0.232602
0.116,0.5873276,10.9928229,101.9831984,11.0196662,102.232231,0.0410699,0,0.0410699,0,0.7686931,7.1313599,33,-106.9999996,9.7913936,27.193695,0,0,0,29489.4393033,7936.4142215,20.0741108,0.1115356,NaN,170.6445919,NaN,0.0383698,2218963.6006433,3303.6022852,0.7862381,0.388878,0.4568308,0.3054298,0.0129013,0.0705468,NaN,NaN,NaN,NaN,NaN,NaN,NaN,NaN,0.0013492,15.748,194.778355,86,0,5.8871439,5.9741824,857.4111248,334.9192545,0.002,0.2345631
0.118,0.6095174,11.1968921,102.0402665,11.2242337,102.2894385,0.0426216,0,0.0426216,0,0.782963,7.1353505,33,-106.9999995,9.7913935,26.7781034,0,0,0,29486.2048452,7933.1797634,20.0719382,0.1115318,NaN,170.6358854,NaN,0.0389122,2250328.3943722,3304.9539278,0.8132078,0.3880924,0.459421,0.304642,0.0129004,0.07055,NaN,NaN,NaN,NaN,NaN,NaN,NaN,NaN,0.0013743,15.748,194.778355,86,0,5.8859259,5.9740381,857.4087645,334.9191671,0.002,0.2372611
0.12,0.6321153,11.4010754,102.0973364,11.4289157,102.3466477,0.0442018,0,0.0442018,0,0.7972409,7.1393412,33,-106.9999995,9.7913935,26.3737391,0,0,0,29482.9703871,7929.9453053,20.0697652,0.1115279,NaN,170.627177,NaN,0.0394569,2281825.8337075,3306.3055703,0.8404949,0.3873175,0.4618177,0.3038647,0.0128996,0.0705532,NaN,NaN,NaN,NaN,NaN,NaN,NaN,NaN,0.0013993,15.748,194.778355,86,0,5.884708,5.9738913,857.4063607,334.9190781,0.002,0.2398746
0.122,0.6551218,11.6053729,102.1544083,11.633712,102.4038589,0.0458106,0,0.0458106,0,0.8115267,7.1433321,33,-106.9999995,9.7913934,25.9801922,0,0,0,29479.735929,7926.7108472,20.0675917,0.111524,NaN,170.6184668,NaN,0.0400039,2313451.3939891,3307.6572129,0.8680948,0.3865533,0.4640302,0.3030979,0.0128988,0.0705566,NaN,NaN,NaN,NaN,NaN,NaN,NaN,NaN,0.0014244,15.748,194.778355,86,0,5.88349,5.9737417,857.4039135,334.9189875,0.002,0.2418914
0.124,0.6785369,11.8097845,102.2114822,11.8386228,102.4610722,0.0474479,0,0.0474479,0,0.8258206,7.1473231,33,-106.9999995,9.7913933,25.5970704,0,0,0,29476.5014709,7923.4763892,20.0654177,0.1115201,NaN,170.6097546,NaN,0.040553,2345200.7734648,3309.0088555,0.8960032,0.3857995,0.4660674,0.3023414,0.0128982,0.0705599,NaN,NaN,NaN,NaN,NaN,NaN,NaN,NaN,0.0014495,15.748,194.778355,86,0,5.8822721,5.9735895,857.4014228,334.9188952,0.002,0.2443026
0.126,0.702361,12.0143103,102.2685584,12.043648,102.5182878,0.0491139,0,0.0491139,0,0.8401224,7.1513142,33,-106.9999995,9.7913932,25.2239981,0,0,0,29473.2670128,7920.2419311,20.0632433,0.1115162,NaN,170.6010405,NaN,0.0411041,2377069.8807443,3310.3604981,0.9242161,0.3850559,0.4679378,0.301595,0.0128976,0.0705634,NaN,NaN,NaN,NaN,NaN,NaN,NaN,NaN,0.0014746,15.748,194.778355,86,0,5.8810541,5.9734347,857.3988886,334.9188014,0.002,0.2471582
0.128,0.7265943,12.2189502,102.3256369,12.2487877,102.5755056,0.0508084,0,0.0508084,0,0.8544322,7.1553056,33,-106.9999995,9.7913932,24.8606156,0,0,0,29470.0325548,7917.007473,20.0610685,0.1115123,NaN,170.5923245,NaN,0.0416573,2409054.8230085,3311.7121407,0.9527295,0.3843224,0.4696498,0.3008585,0.012897,0.0705669,NaN,NaN,NaN,NaN,NaN,NaN,NaN,NaN,0.0014997,15.748,194.778355,86,0,5.8798362,5.9732771,857.3963108,334.9187059,0.002,0.2507819
0.13,0.7512369,12.4237044,102.3827179,12.4540418,102.632726,0.0525316,0,0.0525316,0,0.86875,7.1592971,33,-106.9999994,9.7913931,24.5065788,0,0,0,29466.7980967,7913.7730149,20.0588932,0.1115085,NaN,170.5836065,NaN,0.0422124,2441151.894928,3313.0637833,0.9815397,0.3835989,0.471211,0.3001319,0.0128966,0.0705704,NaN,NaN,NaN,NaN,NaN,NaN,NaN,NaN,0.0015249,15.748,194.778355,86,0,5.8786182,5.973117,857.3936896,334.9186089,0.002,0.2537346
0.132,0.7762892,12.6285726,102.4398015,12.6594103,102.689949,0.0542834,0,0.0542834,0,0.8830758,7.1632887,33,-106.9999994,9.791393,24.1615579,0,0,0,29463.5636386,7910.5385568,20.0567175,0.1115046,NaN,170.5748867,NaN,0.0427694,2473357.5682503,3314.4154259,1.010643,0.3828851,0.472629,0.2994149,0.0128962,0.070574,NaN,NaN,NaN,NaN,NaN,NaN,NaN,NaN,0.00155,15.748,194.778355,86,0,5.8774003,5.9729541,857.3910247,334.9185102,0.002,0.2564911
0.134,0.8017513,12.8335551,102.4968878,12.8648933,102.7471747,0.0560639,0,0.0560639,0,0.8974096,7.1672806,33,-106.9999994,9.7913929,23.8252372,0,0,0,29460.3291805,7907.3040987,20.0545413,0.1115007,NaN,170.566165,NaN,0.0433283,2505668.482014,3315.7670684,1.040036,0.382181,0.4739111,0.2987074,0.0128959,0.0705777,NaN,NaN,NaN,NaN,NaN,NaN,NaN,NaN,0.0015752,15.748,194.778355,86,0,5.8761823,5.9727886,857.3883163,334.9184099,0.002,0.2596529
0.136,0.8276235,13.0386517,102.5539769,13.0704908,102.8044033,0.0578731,0,0.0578731,0,0.9117513,7.1712727,33,-106.9999994,9.7913929,23.4973143,0,0,0,29457.0947224,7904.0696407,20.0523647,0.1114968,NaN,170.5574413,NaN,0.0438889,2538081.4333527,3317.118711,1.0697155,0.3814862,0.4750641,0.2980091,0.0128957,0.0705814,NaN,NaN,NaN,NaN,NaN,NaN,NaN,NaN,0.0016003,15.748,194.778355,86,0,5.8749644,5.9726204,857.3855642,334.918308,0.002,0.2625062
0.138,0.853906,13.2438625,102.611069,13.2762027,102.8616348,0.0597109,0,0.0597109,0,0.9261011,7.1752649,33,-106.9999994,9.7913928,23.1774996,0,0,0,29453.8602644,7900.8351826,20.0501876,0.1114929,NaN,170.5487157,NaN,0.0444512,2570593.368852,3318.4703536,1.0996783,0.3808008,0.4760945,0.29732,0.0128955,0.0705852,NaN,NaN,NaN,NaN,NaN,NaN,NaN,NaN,0.0016255,15.748,194.778355,86,0,5.8737464,5.9724496,857.3827685,334.9182045,0.002,0.2652517
0.14,0.8805991,13.4491876,102.6681642,13.4820291,102.9188694,0.0615775,0,0.0615775,0,0.9404588,7.1792574,33,-106.9999993,9.7913927,22.8655153,0,0,0,29450.6258063,7897.6007245,20.0480101,0.111489,NaN,170.5399882,NaN,0.0450151,2603201.376425,3319.8219962,1.1299214,0.3801244,0.4770087,0.2966399,0.0128954,0.0705891,NaN,NaN,NaN,NaN,NaN,NaN,NaN,NaN,0.0016507,15.748,194.778355,86,0,5.8725285,5.9722761,857.3799291,334.9180993,0.002,0.2679629
0.142,0.9077029,13.6546268,102.7252625,13.68797,102.9761071,0.0634728,0,0.0634728,0,0.9548245,7.1832501,33,-106.9999993,9.7913926,22.5610954,0,0,0,29447.3913482,7894.3662664,20.0458322,0.1114852,NaN,170.5312588,NaN,0.0455807,2635902.6776757,3321.1736388,1.160442,0.379457,0.4778125,0.2959686,0.0128954,0.070593,NaN,NaN,NaN,NaN,NaN,NaN,NaN,NaN,0.0016759,15.748,194.778355,86,0,5.8713105,5.9720999,857.3770461,334.9179926,0.002,0.2740342
0.144,0.9352177,13.8601802,102.782364,13.8940253,103.033348,0.0653968,0,0.0653968,0,0.9691982,7.187243,33,-106.9999993,9.7913925,22.263985,0,0,0,29444.1568901,7891.1318083,20.0436537,0.1114813,NaN,170.5225274,NaN,0.0461479,2668694.6207176,3322.5252814,1.1912373,0.3787984,0.4785117,0.2953059,0.0128955,0.0705969,NaN,NaN,NaN,NaN,NaN,NaN,NaN,NaN,0.0017012,15.748,194.778355,86,0,5.8700926,5.9719211,857.3741193,334.9178842,0.002,0.2756196
0.146,0.9631437,14.0658478,102.8394688,14.1001952,103.0905923,0.0673496,0,0.0673496,0,0.9835799,7.1912362,33,-106.9999993,9.7913925,21.9739396,0,0,0,29440.922432,7887.8973502,20.0414749,0.1114774,NaN,170.5137942,NaN,0.0467166,2701574.6734208,3323.876924,1.2223046,0.3781484,0.4791117,0.2946518,0.0128956,0.070601,NaN,NaN,NaN,NaN,NaN,NaN,NaN,NaN,0.0017264,15.748,194.778355,86,0,5.8688746,5.9717396,857.3711488,334.9177742,0.002,0.2790548
0.148,0.9914812,14.2716297,102.8965771,14.3064795,103.1478401,0.0693311,0,0.0693311,0,0.9979696,7.1952296,33,-106.9999993,9.7913924,21.6907245,0,0,0,29437.6879739,7884.6628922,20.0392956,0.1114735,NaN,170.505059,NaN,0.0472868,2734540.4170597,3325.2285665,1.2536415,0.3775068,0.4796176,0.294006,0.0128958,0.0706051,NaN,NaN,NaN,NaN,NaN,NaN,NaN,NaN,0.0017517,15.748,194.778355,86,0,5.8676566,5.9715554,857.3681345,334.9176626,0.002,0.2807648
0.15,1.0202303,14.4775257,102.9536889,14.5128784,103.2050913,0.0713415,0,0.0713415,0,1.0123672,7.1992232,33,-106.9999992,9.7913923,21.4141151,0,0,0,29434.4535159,7881.4284341,20.0371158,0.1114696,NaN,170.4963219,NaN,0.0478584,2767589.5403367,3326.5802091,1.2852456,0.3768736,0.4800345,0.2933683,0.0128961,0.0706092,NaN,NaN,NaN,NaN,NaN,NaN,NaN,NaN,0.0017769,15.748,194.778355,86,0,5.8664387,5.9713685,857.3650764,334.9175493,0.002,0.2831065
0.152,1.0493914,14.683536,103.0107772,14.7193917,103.262319,0.0733806,0,0.0733806,0,1.0267729,7.2032152,33,-106.9999992,9.7913922,21.2336651,0,0,0,29431.2190578,7878.193976,20.0349356,0.1114657,NaN,170.4875829,NaN,0.0484672,2802784.4258593,3327.9318517,1.3179112,0.3762099,0.4799496,0.2926998,0.0128964,0.0706137,NaN,NaN,NaN,NaN,NaN,NaN,NaN,NaN,0.0018022,15.748,194.778355,86,0,5.8933156,5.971179,857.3619745,334.9174344,0.002,0.2853208
0.154,1.0789646,14.8896605,103.0678663,14.9260195,103.3195475,0.0754486,0,0.0754486,0,1.0411865,7.2072073,33,-106.9999992,9.7913921,21.05755,0,0,0,29427.9845997,7874.9595179,20.0327549,0.1114619,NaN,170.478842,NaN,0.0490767,2838024.6003104,3329.2834943,1.350925,0.375556,0.4798295,0.292041,0.0128969,0.0706182,NaN,NaN,NaN,NaN,NaN,NaN,NaN,NaN,0.0018275,15.748,194.778355,86,0,5.9201925,5.9709867,857.3588287,334.917318,0.002,0.2874197
0.156,1.1089501,15.0958991,103.1249561,15.1327618,103.3767768,0.0775453,0,0.0775453,0,1.0556081,7.2111994,33,-106.9999992,9.791392,20.8856169,0,0,0,29424.7501416,7871.7250598,20.0305738,0.111458,NaN,170.4700991,NaN,0.049687,2873309.1264147,3330.6351369,1.3842862,0.3749118,0.4796764,0.2913916,0.0128974,0.0706228,NaN,NaN,NaN,NaN,NaN,NaN,NaN,NaN,0.0018528,15.748,194.778355,86,0,5.9470694,5.9707918,857.3556391,334.9171998,0.002,0.2896917
0.158,1.1393483,15.3022519,103.1820468,15.3396185,103.4340068,0.079671,0,0.079671,0,1.0700377,7.2151916,33,-106.9999991,9.7913919,20.7177198,0,0,0,29421.5156835,7868.4906018,20.0283922,0.1114541,NaN,170.4613543,NaN,0.050298,2908637.110493,3331.9867795,1.4179945,0.3742768,0.4794925,0.2907514,0.0128979,0.0706275,NaN,NaN,NaN,NaN,NaN,NaN,NaN,NaN,0.0018782,15.748,194.778355,86,0,5.9739463,5.9705942,857.3524056,334.9170801,0.002,0.2913922
0.16,1.1701593,15.5087189,103.2391382,15.5465897,103.4912377,0.0818255,0,0.0818255,0,1.0844753,7.2191838,33,-106.9999991,9.7913918,20.5537194,0,0,0,29418.2812254,7865.2561437,20.0262102,0.1114502,NaN,170.4526076,NaN,0.0509098,2944007.7000185,3333.3384221,1.4520493,0.3736511,0.4792796,0.2901203,0.0128986,0.0706322,NaN,NaN,NaN,NaN,NaN,NaN,NaN,NaN,0.0019035,15.748,194.778355,86,0,6.0008232,5.970394,857.3491282,334.9169587,0.002,0.2932825
0.162,1.2013833,15.7153002,103.2962305,15.7536753,103.5484693,0.0840089,0,0.0840089,0,1.0989208,7.2231761,33,-106.9999991,9.7913917,20.3934826,0,0,0,29415.0467674,7862.0216856,20.0240278,0.1114463,NaN,170.443859,NaN,0.0515224,2979420.0812988,3334.6900646,1.4864502,0.3730342,0.4790397,0.2894979,0.0128993,0.070637,NaN,NaN,NaN,NaN,NaN,NaN,NaN,NaN,0.0019289,15.748,194.778355,86,0,6.0277001,5.970191,857.3458069,334.9168358,0.002,0.2951836
0.164,1.2330206,15.9219955,103.3533236,15.9608754,103.6057019,0.0862212,0,0.0862212,0,1.1133744,7.2271684,33,-106.9999991,9.7913916,20.2368821,0,0,0,29411.8123093,7858.7872275,20.0218448,0.1114424,NaN,170.4351085,NaN,0.0521356,3014873.4773119,3336.0417072,1.5211968,0.372426,0.4787745,0.2888841,0.0129001,0.0706418,NaN,NaN,NaN,NaN,NaN,NaN,NaN,NaN,0.0019542,15.748,194.778355,86,0,6.054577,5.9699854,857.3424416,334.9167111,0.002,0.2968028
0.166,1.2650714,16.1288051,103.4104175,16.16819,103.6629352,0.0884624,0,0.0884624,0,1.1278359,7.2311608,33,-106.9999991,9.7913915,20.0837964,0,0,0,29408.5778512,7855.5527694,20.0196615,0.1114386,NaN,170.426356,NaN,0.0527495,3050367.1456818,3337.3933498,1.5562888,0.3718264,0.4784856,0.2882786,0.012901,0.0706468,NaN,NaN,NaN,NaN,NaN,NaN,NaN,NaN,0.0019796,15.748,194.778355,86,0,6.0814539,5.969777,857.3390323,334.9165849,0.002,0.2985493
0.168,1.2975359,16.3357289,103.4675123,16.3756191,103.7201694,0.0907325,0,0.0907325,0,1.1423054,7.2351533,33,-106.999999,9.7913914,19.9341089,0,0,0,29405.3433931,7852.3183113,20.0174777,0.1114347,NaN,170.4176016,NaN,0.0533642,3085900.376786,3338.7449924,1.5917258,0.371235,0.4781745,0.2876813,0.0129019,0.0706517,NaN,NaN,NaN,NaN,NaN,NaN,NaN,NaN,0.002005,15.748,194.778355,86,0,6.1083308,5.969566,857.335579,334.916457,0.002,0.3002844
0.17,1.3304144,16.5427669,103.524608,16.5831626,103.7774045,0.0930316,0,0.0930316,0,1.1567829,7.2391458,33,-106.999999,9.7913913,19.7877084,0,0,0,29402.108935,7849.0838533,20.0152934,0.1114308,NaN,170.4088453,NaN,0.0539795,3121472.4919831,3340.096635,1.6275073,0.3706517,0.4778427,0.287092,0.0129029,0.0706568,NaN,NaN,NaN,NaN,NaN,NaN,NaN,NaN,0.0020304,15.748,194.778355,86,0,6.1352077,5.9693523,857.3320817,334.9163275,0.002,0.3020053
0.172,1.3637071,16.7499191,103.5817045,16.7908207,103.8346405,0.0953597,0,0.0953597,0,1.1712684,7.2431384,33,-106.999999,9.7913912,19.6444881,0,0,0,29398.874477,7845.8493952,20.0131087,0.1114269,NaN,170.400087,NaN,0.0545955,3157082.8419532,3341.4482776,1.6636333,0.3700764,0.4774916,0.2865105,0.012904,0.0706619,NaN,NaN,NaN,NaN,NaN,NaN,NaN,NaN,0.0020559,15.748,194.778355,86,0,6.1620846,5.9691359,857.3285403,334.9161964,0.002,0.303776
0.174,1.3974142,16.9571854,103.6388019,16.9985932,103.8918773,0.0977167,0,0.0977167,0,1.1857619,7.247131,33,-106.999999,9.7913911,19.5043458,0,0,0,29395.6400189,7842.6149371,20.0109235,0.111423,NaN,170.3913268,NaN,0.0552121,3192730.8051423,3342.7999202,1.7001033,0.3695088,0.4771225,0.2859366,0.0129051,0.070667,NaN,NaN,NaN,NaN,NaN,NaN,NaN,NaN,0.0020813,15.748,194.778355,86,0,6.1889615,5.9689168,857.3249548,334.9160636,0.002,0.3057089
0.176,1.4315359,17.164566,103.6959003,17.2064801,103.9491151,0.1001027,0,0.1001027,0,1.2002634,7.2511237,33,-106.9999989,9.791391,19.3671837,0,0,0,29392.4055608,7839.380479,20.0087379,0.1114191,NaN,170.3825647,NaN,0.0558294,3228415.7863029,3344.1515627,1.7369171,0.3689487,0.4767365,0.2853701,0.0129063,0.0706723,NaN,NaN,NaN,NaN,NaN,NaN,NaN,NaN,0.0021067,15.748,194.778355,86,0,6.2158385,5.968695,857.3213253,334.9159292,0.002,0.3072791
0.178,1.4660725,17.3720608,103.7529995,17.4144816,104.0063538,0.1025178,0,0.1025178,0,1.2147728,7.2551165,33,-106.9999989,9.7913909,19.2329078,0,0,0,29389.1711027,7836.1460209,20.0065518,0.1114153,NaN,170.3738007,NaN,0.0564473,3264137.2151255,3345.5032053,1.7740745,0.3683961,0.4763348,0.2848109,0.0129076,0.0706776,NaN,NaN,NaN,NaN,NaN,NaN,NaN,NaN,0.0021322,15.748,194.778355,86,0,6.2427154,5.9684705,857.3176515,334.9157931,0.002,0.3090083
0.18,1.5010243,17.5796698,103.8100996,17.6225975,104.0635933,0.1049618,0,0.1049618,0,1.2292903,7.2591093,33,-106.9999989,9.7913908,19.1014282,0,0,0,29385.9366446,7832.9115628,20.0043653,0.1114114,NaN,170.3650347,NaN,0.0570659,3299894.544953,3346.8548479,1.8115753,0.3678507,0.4759185,0.2842588,0.0129089,0.0706829,NaN,NaN,NaN,NaN,NaN,NaN,NaN,NaN,0.0021577,15.748,194.778355,86,0,6.2695923,5.9682433,857.3139337,334.9156555,0.002,0.3105202
0.182,1.5363913,17.7873929,103.8672007,17.8308279,104.1208338,0.1074349,0,0.1074349,0,1.2438157,7.2631022,33,-106.9999988,9.7913907,18.9726584,0,0,0,29382.7021865,7829.6771048,20.0021783,0.1114075,NaN,170.3562668,NaN,0.057685,3335687.2515722,3348.2064905,1.8494192,0.3673123,0.4754885,0.2837136,0.0129103,0.0706883,NaN,NaN,NaN,NaN,NaN,NaN,NaN,NaN,0.0021832,15.748,194.778355,86,0,6.2964692,5.9680135,857.3101716,334.9155162,0.002,0.3123337
0.184,1.5721739,17.9952303,103.9243027,18.0391729,104.1780753,0.1099371,0,0.1099371,0,1.2583491,7.2670952,33,-106.9999988,9.7913906,18.8465156,0,0,0,29379.4677285,7826.4426467,19.9999909,0.1114036,NaN,170.347497,NaN,0.0583048,3371514.8320795,3349.5581331,1.8876061,0.3667809,0.4750459,0.2831753,0.0129118,0.0706938,NaN,NaN,NaN,NaN,NaN,NaN,NaN,NaN,0.0022087,15.748,194.778355,86,0,6.3233461,5.9677809,857.3063654,334.9153752,0.002,0.3142116
0.186,1.6083724,18.2031819,103.9814056,18.2476323,104.2353176,0.1124684,0,0.1124684,0,1.2728905,7.2710882,33,-106.9999988,9.7913905,18.7229202,0,0,0,29376.2332704,7823.2081886,19.997803,0.1113997,NaN,170.3387252,NaN,0.0589252,3407376.8038118,3350.9097757,1.9261358,0.3662563,0.4745914,0.2826435,0.0129133,0.0706994,NaN,NaN,NaN,NaN,NaN,NaN,NaN,NaN,0.0022342,15.748,194.778355,86,0,6.350223,5.9675456,857.3025149,334.9152326,0.002,0.3157396
0.188,1.6449868,18.4112478,104.0385095,18.4562062,104.2925609,0.1150287,0,0.1150287,0,1.2874399,7.2750813,33,-106.9999988,9.7913904,18.6017956,0,0,0,29372.9988123,7819.9737305,19.9956147,0.1113958,NaN,170.3299516,NaN,0.0595461,3443272.7033422,3352.2614183,1.9650082,0.3657383,0.4741261,0.2821183,0.0129149,0.070705,NaN,NaN,NaN,NaN,NaN,NaN,NaN,NaN,0.0022598,15.748,194.778355,86,0,6.3770999,5.9673076,857.2986202,334.9150884,0.002,0.3171959
0.19,1.6820174,18.6194278,104.0956143,18.6648945,104.3498052,0.1176181,0,0.1176181,0,1.3019972,7.2790744,33,-106.9999987,9.7913903,18.4830684,0,0,0,29369.7643542,7816.7392724,19.9934259,0.111392,NaN,170.3211759,NaN,0.0601677,3479202.085533,3353.6130608,2.0042232,0.3652267,0.4736505,0.2815995,0.0129166,0.0707107,NaN,NaN,NaN,NaN,NaN,NaN,NaN,NaN,0.0022853,15.748,194.778355,86,0,6.4039768,5.9670669,857.2946812,334.9149425,0.002,0.31921
0.192,1.7194646,18.827722,104.1527201,18.8736974,104.4070504,0.1202367,0,0.1202367,0,1.3165626,7.2830677,33,-106.9999987,9.7913902,18.366668,0,0,0,29366.5298961,7813.5048144,19.9912367,0.1113881,NaN,170.3123984,NaN,0.0607898,3515164.5226439,3354.9647034,2.0437806,0.3647215,0.4731656,0.2810868,0.0129183,0.0707164,NaN,NaN,NaN,NaN,NaN,NaN,NaN,NaN,0.0023109,15.748,194.778355,86,0,6.4308537,5.9668235,857.2906979,334.914795,0.002,0.3208367
0.194,1.7573284,19.0361305,104.2098268,19.0826148,104.4642966,0.1228844,0,0.1228844,0,1.3311359,7.287061,33,-106.9999987,9.79139,18.2525264,0,0,0,29363.295438,7810.2703563,19.989047,0.1113842,NaN,170.3036189,NaN,0.0614125,3551159.6034917,3356.316346,2.0836803,0.3642226,0.472672,0.2805803,0.0129201,0.0707222,NaN,NaN,NaN,NaN,NaN,NaN,NaN,NaN,0.0023365,15.748,194.778355,86,0,6.4577306,5.9665774,857.2866703,334.9146459,0.002,0.322529
0.196,1.7956092,19.2446532,104.2669344,19.2916467,104.5215437,0.1255612,0,0.1255612,0,1.3457172,7.2910543,33,-106.9999987,9.7913899,18.1405784,0,0,0,29360.06098,7807.0358982,19.9868568,0.1113803,NaN,170.2948375,NaN,0.0620358,3587186.9326571,3357.6679886,2.1239224,0.3637297,0.4721704,0.2800797,0.0129219,0.0707281,NaN,NaN,NaN,NaN,NaN,NaN,NaN,NaN,0.0023621,15.748,194.778355,86,0,6.4846075,5.9663285,857.2825983,334.9144951,0.002,0.3242888
0.198,1.8343072,19.4532901,104.324043,19.500793,104.5787917,0.1282673,0,0.1282673,0,1.3603066,7.2950477,33,-106.9999986,9.7913898,18.030761,0,0,0,29356.8265219,7803.8014401,19.9846662,0.1113764,NaN,170.2860541,NaN,0.0626596,3623246.1297365,3359.0196312,2.1645066,0.3632428,0.4716613,0.2795849,0.0129238,0.070734,NaN,NaN,NaN,NaN,NaN,NaN,NaN,NaN,0.0023877,15.748,194.778355,86,0,6.5114844,5.966077,857.2784819,334.9143427,0.002,0.3258273
0.2,1.8734225,19.6620412,104.3811526,19.7100539,104.6360408,0.1310025,0,0.1310025,0,1.3749039,7.2990412,33,-106.9999986,9.7913897,17.9230137,0,0,0,29353.5920638,7800.566982,19.9824752,0.1113726,NaN,170.2772688,NaN,0.063284,3659336.8286353,3360.3712738,2.2054329,0.3627617,0.4711455,0.2790959,0.0129258,0.07074,NaN,NaN,NaN,NaN,NaN,NaN,NaN,NaN,0.0024133,15.748,194.778355,86,0,6.5383613,5.9658228,857.2743212,334.9141886,0.002,0.327269
0.202,1.9129554,19.8709066,104.4382915,19.9194293,104.6933192,0.1337669,0,0.1337669,0,1.3895091,7.3030368,33,-106.9999986,9.7913896,17.7843219,0,0,0,29350.3576057,7797.3325239,19.9802837,0.1113687,NaN,170.2684816,NaN,0.0638942,3694608.5607942,3361.7229163,2.2458674,0.3622975,0.4706652,0.2786238,0.0129278,0.070746,NaN,NaN,NaN,NaN,NaN,NaN,NaN,NaN,0.0024389,15.748,194.778355,86,0,6.5519799,5.9655658,857.270116,334.9140329,0.002,0.3288377
0.204,1.9529062,20.0798863,104.4954328,20.1289193,104.7506,0.1365605,0,0.1365605,0,1.4041224,7.3070325,33,-106.9999985,9.7913895,17.6481627,0,0,0,29347.1231476,7794.0980659,19.9780917,0.1113648,NaN,170.2596924,NaN,0.0645051,3729920.0220311,3363.0745589,2.286601,0.3618385,0.4701702,0.2781568,0.0129298,0.0707519,NaN,NaN,NaN,NaN,NaN,NaN,NaN,NaN,0.0024646,15.748,194.778355,86,0,6.5655985,5.9653061,857.2658664,334.9138755,0.002,0.330339
0.206,1.9932751,20.2889802,104.5525765,20.3385238,104.8078833,0.1393834,0,0.1393834,0,1.4187437,7.3110284,33,-106.9999985,9.7913893,17.5144685,0,0,0,29343.8886896,7790.8636078,19.9758993,0.1113609,NaN,170.2509013,NaN,0.0651167,3765270.6533737,3364.4262015,2.3276335,0.3613846,0.4696613,0.2776948,0.0129319,0.070758,NaN,NaN,NaN,NaN,NaN,NaN,NaN,NaN,0.0024902,15.748,194.778355,86,0,6.5792171,5.9650437,857.2615723,334.9137165,0.002,0.33189
0.208,2.0340623,20.4981885,104.6097227,20.548243,104.865169,0.1422355,0,0.1422355,0,1.433373,7.3150244,33,-106.9999985,9.7913892,17.3831738,0,0,0,29340.6542315,7787.6291497,19.9737065,0.111357,NaN,170.2421083,NaN,0.065729,3800659.9156152,3365.7778441,2.3689645,0.3609358,0.4691395,0.2772377,0.012934,0.0707641,NaN,NaN,NaN,NaN,NaN,NaN,NaN,NaN,0.0025159,15.748,194.778355,86,0,6.5928358,5.9647786,857.2572337,334.9135558,0.002,0.3334159
0.21,2.0752679,20.707511,104.6668714,20.7580766,104.9224572,0.1451169,0,0.1451169,0,1.4480102,7.3190206,33,-106.9999984,9.7913891,17.2542154,0,0,0,29337.4197734,7784.3946916,19.9715132,0.1113531,NaN,170.2333133,NaN,0.066342,3836087.2884387,3367.1294867,2.4105937,0.3604919,0.4686055,0.2767854,0.0129362,0.0707703,NaN,NaN,NaN,NaN,NaN,NaN,NaN,NaN,0.0025416,15.748,194.778355,86,0,6.6064544,5.9645108,857.2528506,334.9133935,0.002,0.3350876
0.212,2.1168924,20.9169479,104.7240225,20.9680249,104.9797479,0.1480275,0,0.1480275,0,1.4626555,7.323017,33,-106.9999984,9.791389,17.1275325,0,0,0,29334.1853153,7781.1602335,19.9693194,0.1113493,NaN,170.2245164,NaN,0.0669556,3871552.2696046,3368.4811293,2.4525209,0.3600528,0.4680601,0.2763378,0.0129385,0.0707765,NaN,NaN,NaN,NaN,NaN,NaN,NaN,NaN,0.0025673,15.748,194.778355,86,0,6.620073,5.9642402,857.248423,334.9132296,0.002,0.3365482
0.214,2.1589358,21.126499,104.7811761,21.1780878,105.0370411,0.1509675,0,0.1509675,0,1.4773087,7.3270136,33,-106.9999984,9.7913888,17.003066,0,0,0,29330.9508572,7777.9257754,19.9671252,0.1113454,NaN,170.2157175,NaN,0.0675698,3907054.3741797,3369.8327719,2.494746,0.3596185,0.4675041,0.2758949,0.0129408,0.0707828,NaN,NaN,NaN,NaN,NaN,NaN,NaN,NaN,0.002593,15.748,194.778355,86,0,6.6336916,5.9639669,857.2439507,334.913064,0.002,0.3381307
0.216,2.2013985,21.3361645,104.8383337,21.3882653,105.0943383,0.1539368,0,0.1539368,0,1.49197,7.3310104,33,-106.9999983,9.7913887,16.8807591,0,0,0,29327.7163991,7774.6913174,19.9649305,0.1113415,NaN,170.2069167,NaN,0.0681847,3942593.1339256,3371.1844144,2.5372232,0.3591889,0.4669298,0.2754566,0.0129431,0.0707892,NaN,NaN,NaN,NaN,NaN,NaN,NaN,NaN,0.0026188,15.748,194.778355,86,0,6.6473102,5.9636909,857.2394339,334.9128967,0.002,0.3406544
0.218,2.2442806,21.5459443,104.895497,21.5985573,105.1516411,0.1569354,0,0.1569354,0,1.5066392,7.3350077,33,-106.9999983,9.7913886,16.7605566,0,0,0,29324.4819411,7771.4568593,19.9627354,0.1113376,NaN,170.198114,NaN,0.0688002,3978168.0973219,3372.536057,2.5799047,0.3587639,0.4663297,0.2750227,0.0129456,0.0707956,NaN,NaN,NaN,NaN,NaN,NaN,NaN,NaN,0.0026445,15.748,194.778355,86,0,6.6609288,5.9634122,857.2348725,334.9127278,0.002,0.3435547
0.22,2.2875824,21.7558385,104.9526659,21.808964,105.2089496,0.1599633,0,0.1599633,0,1.5213164,7.3390053,33,-106.9999983,9.7913884,16.6424053,0,0,0,29321.247483,7768.2224012,19.9605398,0.1113337,NaN,170.1893093,NaN,0.0694164,4013778.8280883,3373.8876996,2.6227933,0.3583434,0.4657058,0.2745933,0.012948,0.0708021,NaN,NaN,NaN,NaN,NaN,NaN,NaN,NaN,0.0026703,15.748,194.778355,86,0,6.6745474,5.9631307,857.2302664,334.9125572,0.002,0.3462346
0.222,2.3313041,21.965847,105.0098402,22.0194853,105.2662635,0.1630207,0,0.1630207,0,1.5360016,7.3430033,33,-106.9999983,9.7913883,16.5262538,0,0,0,29318.0130249,7764.9879431,19.9583437,0.1113298,NaN,170.1805026,NaN,0.0700331,4049424.9045421,3375.2393422,2.665892,0.3579274,0.4650601,0.2741681,0.0129506,0.0708087,NaN,NaN,NaN,NaN,NaN,NaN,NaN,NaN,0.002696,15.748,194.778355,86,0,6.688166,5.9628465,857.2256157,334.912385,0.002,0.3486336
0.224,2.3754459,22.1759698,105.0670199,22.2301213,105.3235828,0.1661074,0,0.1661074,0,1.5506949,7.3470017,33,-106.9999982,9.7913882,16.4120521,0,0,0,29314.7785668,7761.753485,19.9561472,0.111326,NaN,170.1716941,NaN,0.0706505,4085105.918954,3376.5909848,2.7092036,0.3575157,0.4643944,0.2737472,0.0129532,0.0708153,NaN,NaN,NaN,NaN,NaN,NaN,NaN,NaN,0.0027218,15.748,194.778355,86,0,6.7017846,5.9625596,857.2209203,334.9122111,0.002,0.3509545
0.226,2.4200081,22.386207,105.1242048,22.4408719,105.3809074,0.1692234,0,0.1692234,0,1.5653961,7.3510005,33,-106.9999982,9.791388,16.2997522,0,0,0,29311.5441087,7758.519027,19.9539503,0.1113221,NaN,170.1628836,NaN,0.0712685,4120821.4769783,3377.9426274,2.7527308,0.3571083,0.4637105,0.2733305,0.0129558,0.070822,NaN,NaN,NaN,NaN,NaN,NaN,NaN,NaN,0.0027476,15.748,194.778355,86,0,6.7154033,5.9622699,857.2161801,334.9120356,0.002,0.3535055
0.228,2.4649908,22.5965586,105.181395,22.6517371,105.4382372,0.1723689,0,0.1723689,0,1.5801053,7.3549996,33,-106.9999982,9.7913879,16.1893073,0,0,0,29308.3096507,7755.2845689,19.9517529,0.1113182,NaN,170.1540711,NaN,0.0718871,4156571.1971106,3379.29427,2.7964763,0.3567051,0.4630098,0.2729179,0.0129585,0.0708288,NaN,NaN,NaN,NaN,NaN,NaN,NaN,NaN,0.0027735,15.748,194.778355,86,0,6.7290219,5.9619776,857.2113953,334.9118584,0.002,0.3560608
0.23,2.5103944,22.8070246,105.2385903,22.8627171,105.4955722,0.1755439,0,0.1755439,0,1.5948225,7.3589991,33,-106.9999981,9.7913878,16.0806722,0,0,0,29305.0751926,7752.0501108,19.949555,0.1113143,NaN,170.1452567,NaN,0.0725063,4192354.7101712,3380.6459125,2.8404425,0.3563061,0.4622939,0.2725093,0.0129612,0.0708356,NaN,NaN,NaN,NaN,NaN,NaN,NaN,NaN,0.0027993,15.748,194.778355,86,0,6.7426405,5.9616824,857.2065656,334.9116796,0.002,0.3584875
0.232,2.556219,23.017605,105.2957906,23.0738117,105.5529122,0.1787482,0,0.1787482,0,1.6095477,7.3629989,33,-106.9999981,9.7913876,15.9738033,0,0,0,29301.8407345,7748.8156527,19.9473567,0.1113104,NaN,170.1364403,NaN,0.073126,4228171.6588133,3381.9975551,2.8846321,0.3559111,0.4615642,0.2721046,0.0129641,0.0708425,NaN,NaN,NaN,NaN,NaN,NaN,NaN,NaN,0.0028251,15.748,194.778355,86,0,6.7562591,5.9613846,857.2016912,334.9114991,0.002,0.3616684
0.234,2.6024649,23.2282998,105.3529958,23.285021,105.6102571,0.1819821,0,0.1819821,0,1.624281,7.3669991,33,-106.999998,9.7913875,15.8686582,0,0,0,29298.6062764,7745.5811946,19.9451579,0.1113065,NaN,170.127622,NaN,0.0737464,4264021.6970533,3383.3491977,2.9290472,0.3555202,0.460822,0.2717039,0.0129669,0.0708494,NaN,NaN,NaN,NaN,NaN,NaN,NaN,NaN,0.002851,15.748,194.778355,86,0,6.7698777,5.961084,857.196772,334.9113169,0.002,0.3642578
0.236,2.6491323,23.439109,105.4102059,23.496345,105.6676069,0.1852454,0,0.1852454,0,1.6390222,7.3709996,33,-106.999998,9.7913873,15.7651958,0,0,0,29295.3718183,7742.3467365,19.9429587,0.1113027,NaN,170.1188018,NaN,0.0743673,4299904.4898241,3384.7008403,2.9736904,0.3551332,0.4600685,0.2713069,0.0129698,0.0708564,NaN,NaN,NaN,NaN,NaN,NaN,NaN,NaN,0.0028769,15.748,194.778355,86,0,6.7834963,5.9607806,857.1918079,334.9111331,0.002,0.3659926
0.238,2.6962215,23.6500327,105.4674208,23.7077837,105.7249615,0.1885382,0,0.1885382,0,1.6537714,7.3750005,33,-106.999998,9.7913872,15.6633763,0,0,0,29292.1373602,7739.1122785,19.940759,0.1112988,NaN,170.1099796,NaN,0.0749888,4335819.7125481,3386.0524829,3.0185638,0.35475,0.4593048,0.2709137,0.0129728,0.0708635,NaN,NaN,NaN,NaN,NaN,NaN,NaN,NaN,0.0029028,15.748,194.778355,86,0,6.7971149,5.9604746,857.186799,334.9109476,0.002,0.3684523
0.24,2.7437326,23.8610708,105.5246405,23.9193371,105.7823209,0.1918605,0,0.1918605,0,1.6685286,7.3790017,33,-106.9999979,9.791387,15.5631612,0,0,0,29288.9029022,7735.8778204,19.9385589,0.1112949,NaN,170.1011555,NaN,0.0756108,4371767.0507301,3387.4041255,3.0636696,0.3543707,0.458532,0.2705243,0.0129758,0.0708707,NaN,NaN,NaN,NaN,NaN,NaN,NaN,NaN,0.0029287,15.748,194.778355,86,0,6.8107335,5.9601657,857.1817451,334.9107604,0.002,0.3701761
0.242,2.7916659,24.0722233,105.5818647,24.1310053,105.8396849,0.1952123,0,0.1952123,0,1.6832938,7.3830032,33,-106.9999979,9.7913869,15.4645132,0,0,0,29285.6684441,7732.6433623,19.9363583,0.111291,NaN,170.0923294,NaN,0.0762335,4407746.1995692,3388.7557681,3.10901,0.3539952,0.4577511,0.2701384,0.0129789,0.0708779,NaN,NaN,NaN,NaN,NaN,NaN,NaN,NaN,0.0029546,15.748,194.778355,86,0,6.8243522,5.9598542,857.1766464,334.9105716,0.002,0.3722591
0.244,2.8400216,24.2834903,105.6390936,24.3427881,105.8970535,0.1985937,0,0.1985937,0,1.6980671,7.387005,33,-106.9999979,9.7913868,15.3673959,0,0,0,29282.433986,7729.4089042,19.9341572,0.1112871,NaN,170.0835013,NaN,0.0768566,4443756.8635876,3390.1074106,3.154587,0.3536233,0.4569629,0.2697561,0.012982,0.0708852,NaN,NaN,NaN,NaN,NaN,NaN,NaN,NaN,0.0029805,15.748,194.778355,86,0,6.8379708,5.9595399,857.1715028,334.9103812,0.002,0.3750798
0.246,2.8887999,24.4948718,105.696327,24.5546858,105.9544266,0.2020046,0,0.2020046,0,1.7128483,7.3910072,33,-106.9999978,9.7913866,15.2717743,0,0,0,29279.1995279,7726.1744461,19.9319557,0.1112832,NaN,170.0746713,NaN,0.0774803,4479798.7562762,3391.4590532,3.2004026,0.3532551,0.4561685,0.2693774,0.0129852,0.0708925,NaN,NaN,NaN,NaN,NaN,NaN,NaN,NaN,0.0030065,15.748,194.778355,86,0,6.8515894,5.9592228,857.1663141,334.910189,0.002,0.3770368
0.248,2.9380012,24.7063677,105.7535648,24.7666982,106.0118042,0.2054451,0,0.2054451,0,1.7276375,7.3950096,33,-106.9999978,9.7913865,15.1776143,0,0,0,29275.9650698,7722.9399881,19.9297538,0.1112794,NaN,170.0658394,NaN,0.0781046,4515871.5997568,3392.8106958,3.2464588,0.3528904,0.4553686,0.2690021,0.0129884,0.0708999,NaN,NaN,NaN,NaN,NaN,NaN,NaN,NaN,0.0030324,15.748,194.778355,86,0,6.865208,5.958903,857.1610805,334.9099952,0.002,0.3786243
0.25,2.9876255,24.9179782,105.810807,24.9788253,106.0691862,0.2089151,0,0.2089151,0,1.7424348,7.3990124,33,-106.9999978,9.7913863,15.0848827,0,0,0,29272.7306117,7719.70553,19.9275513,0.1112755,NaN,170.0570055,NaN,0.0787294,4551975.1244578,3394.1623384,3.2927575,0.3525292,0.4545639,0.2686302,0.0129917,0.0709074,NaN,NaN,NaN,NaN,NaN,NaN,NaN,NaN,0.0030584,15.748,194.778355,86,0,6.8788266,5.9585804,857.1558019,334.9097997,0.002,0.3808015
0.252,3.0376732,25.1297032,105.8681561,25.1910674,106.1266753,0.2124148,0,0.2124148,0,1.75724,7.4030226,33,-106.9999977,9.7913862,14.9481754,0,0,0,29269.4961537,7716.4710719,19.9253484,0.1112716,NaN,170.0481696,NaN,0.0793331,4586860.2822545,3395.513981,3.3362914,0.3521839,0.4535932,0.2682743,0.0129949,0.0709147,NaN,NaN,NaN,NaN,NaN,NaN,NaN,NaN,0.0030844,15.748,194.778355,86,0,6.8701936,5.9582551,857.1504783,334.9096026,0.002,0.3829136
0.254,3.0881444,25.3415429,105.9255144,25.4034244,106.1841737,0.2159441,0,0.2159441,0,1.7720533,7.4070335,33,-106.9999977,9.791386,14.8134708,0,0,0,29266.2616956,7713.2366138,19.9231451,0.1112677,NaN,170.0393319,NaN,0.0799377,4621789.9009087,3396.8656236,3.3799267,0.3518415,0.4526047,0.2679213,0.0129981,0.070922,NaN,NaN,NaN,NaN,NaN,NaN,NaN,NaN,0.0031104,15.748,194.778355,86,0,6.8615607,5.9579271,857.1451096,334.9094038,0.002,0.3847399
0.256,3.1390395,25.5534974,105.9828817,25.6158964,106.2416811,0.219503,0,0.219503,0,1.7868746,7.411045,33,-106.9999976,9.7913858,14.6807269,0,0,0,29263.0272375,7710.0021557,19.9209413,0.1112638,NaN,170.0304921,NaN,0.0805429,4656763.4354756,3398.2172662,3.4236685,0.3515021,0.4516002,0.2675712,0.0130015,0.0709294,NaN,NaN,NaN,NaN,NaN,NaN,NaN,NaN,0.0031364,15.748,194.778355,86,0,6.8529277,5.9575962,857.1396958,334.9092033,0.002,0.3880283
0.258,3.1903585,25.7655666,106.040258,25.8284835,106.2991975,0.2230916,0,0.2230916,0,1.8017039,7.4150572,33,-106.9999976,9.7913857,14.5499029,0,0,0,29259.7927794,7706.7676976,19.9187371,0.1112599,NaN,170.0216504,NaN,0.081149,4691780.3562298,3399.5689087,3.4675219,0.3511657,0.4505813,0.2672239,0.0130048,0.0709369,NaN,NaN,NaN,NaN,NaN,NaN,NaN,NaN,0.0031624,15.748,194.778355,86,0,6.8442947,5.9572627,857.1342369,334.9090012,0.002,0.390765
0.26,3.2421018,25.9777506,106.0976429,26.0411856,106.3567226,0.2267098,0,0.2267098,0,1.8165413,7.4190699,33,-106.9999976,9.7913855,14.420959,0,0,0,29256.5583213,7703.5332396,19.9165324,0.1112561,NaN,170.0128067,NaN,0.0817558,4726840.1480811,3400.9205513,3.5114917,0.3508321,0.4495497,0.2668794,0.0130082,0.0709445,NaN,NaN,NaN,NaN,NaN,NaN,NaN,NaN,0.0031885,15.748,194.778355,86,0,6.8356618,5.9569263,857.1287329,334.9087974,0.002,0.3933512
0.262,3.2942696,26.1900494,106.1550364,26.2540028,106.4142562,0.2303578,0,0.2303578,0,1.8313867,7.4230833,33,-106.9999975,9.7913854,14.2938565,0,0,0,29253.3238633,7700.2987815,19.9143272,0.1112522,NaN,170.0039611,NaN,0.0823633,4761942.3100825,3402.2721939,3.5555828,0.3505015,0.4485067,0.2665377,0.0130117,0.0709521,NaN,NaN,NaN,NaN,NaN,NaN,NaN,NaN,0.0032145,15.748,194.778355,86,0,6.8270288,5.9565872,857.1231838,334.9085919,0.002,0.3957524
0.264,3.3468621,26.4024629,106.2124383,26.4669351,106.4717983,0.2340354,0,0.2340354,0,1.8462401,7.4270972,33,-106.9999975,9.7913852,14.1685577,0,0,0,29250.0894052,7697.0643234,19.9121216,0.1112483,NaN,169.9951135,NaN,0.0829716,4797086.3549564,3403.6238365,3.5997997,0.3501736,0.4474538,0.2661987,0.0130152,0.0709597,NaN,NaN,NaN,NaN,NaN,NaN,NaN,NaN,0.0032406,15.748,194.778355,86,0,6.8183958,5.9562454,857.1175894,334.9083847,0.002,0.3984085
0.266,3.3998796,26.6149913,106.2698485,26.6799824,106.5293486,0.2377427,0,0.2377427,0,1.8611015,7.4311117,33,-106.9999975,9.791385,14.045026,0,0,0,29246.8549471,7693.8298653,19.9099155,0.1112444,NaN,169.986264,NaN,0.0835806,4832271.8086401,3404.9754791,3.6441469,0.3498486,0.4463923,0.2658623,0.0130188,0.0709675,NaN,NaN,NaN,NaN,NaN,NaN,NaN,NaN,0.0032667,15.748,194.778355,86,0,6.8097629,5.9559008,857.1119499,334.9081759,0.002,0.4010602
0.268,3.4533222,26.8276345,106.3272668,26.8931449,106.5869071,0.2414798,0,0.2414798,0,1.875971,7.4351268,33,-106.9999974,9.7913849,13.9232256,0,0,0,29243.620489,7690.5954072,19.9077089,0.1112405,NaN,169.9774125,NaN,0.0841903,4867498.2098487,3406.3271217,3.6886288,0.3495263,0.4453232,0.2655286,0.0130224,0.0709753,NaN,NaN,NaN,NaN,NaN,NaN,NaN,NaN,0.0032928,15.748,194.778355,86,0,6.8011299,5.9555534,857.1062651,334.9079654,0.002,0.4032934
