# Time (s),Vertical acceleration (m/s²),Lateral acceleration (m/s²),Roll rate (rad/s),Pitch rate (rad/s),Yaw rate (rad/s),Air temperature (°C),Air pressure (mbar)
0.01,14.89,2.62551,0,0,0,0,99.5794
0.02,83.6503,14.7498,0,0,0,0,99.5793
0.03,85.7016,15.1115,0,0,0,0,99.5791
0.04,87.0996,15.358,0,0,0,0,99.5789
0.05,87.5927,15.445,0,0,0,0,99.5785
0.06,87.1804,15.3723,0,0,0,0,99.578
0.07,86.7668,15.2993,0,0,0,0,99.5774
0.08,86.3518,15.2262,0,0,0,0,99.5767
0.09,85.9356,15.1528,0,0,0,0,99.5759
0.1,85.5182,15.0792,0,0,0,0,99.575
0.11,85.0997,15.0054,0,0,0,0,99.574
0.12,84.6802,14.9314,0,0,0,0,99.5729
0.13,84.2596,14.8572,0,0,0,0,99.5717
0.14,83.838,14.7829,0,0,0,0,99.5703
0.15,83.4154,14.7084,0,0,0,0,99.5689
0.16,82.9921,14.6337,0,0,0,0,99.5674
0.17,82.5681,14.559,0,0,0,0,99.5658
0.18,82.1433,14.4841,0,0,0,0,99.5641
0.19,81.718,14.4091,0,0,0,0,99.5623
0.2,81.4223,14.357,0,0,0,0,99.5604
0.21,81.909,14.4428,0,0,0,0,99.5583
0.22,82.5265,14.5516,0,0,0,0,99.5562
0.235,83.4701,13.7608,0,0,0,0,99.5529
0.2575,84.506,13.7886,0,0,0,0,99.5474
0.29125,83.8585,13.7193,0,0,0,0,99.5382
0.34125,83.3555,13.4118,0,0,0,0,99.5226
0.386721,83.4515,15.7899,0,0,0,0,99.5061
0.436721,81.3146,17.3687,0,0,0,0,99.4856
0.486721,80.83,18.6187,0,0,0,0,99.4627
0.536721,80.9413,19.7157,0,0,0,0,99.4373
0.586721,81.0117,20.8798,0,0,0,0,99.4095
0.636721,80.7673,22.7859,0,0,0,0,99.3792
0.686721,79.9866,25.3338,0,0,0,0,99.3465
0.736721,79.0435,28.0441,0,0,0,0,99.3113
0.786721,77.9035,31.0157,0,0,0,0,99.2738
0.836721,76.5925,33.7838,0,0,0,0,99.2339
0.885263,75.1868,36.2227,0,0,0,0,99.193
0.916757,74.3333,37.3785,0,0,0,0,99.1653
0.943776,73.7986,37.992,0,0,0,0,99.1408
0.969183,73.2053,38.8106,0,0,0,0,99.1172
0.990979,72.7222,39.4289,0,0,0,0,99.0965
1.0102,72.4211,39.7015,0,0,0,0,99.0779
1.02808,72.2613,39.7027,0,0,0,0,99.0603
1.04533,72.1988,39.5127,0,0,0,0,99.043
1.0623,72.5214,38.4298,0,0,0,0,99.0258
1.08171,73.0996,36.725,0,0,0,0,99.0058
1.108,73.909,34.3756,0,0,0,0,98.9782
1.14743,74.9259,31.1071,0,0,0,0,98.9356
1.19743,76.185,26.4138,0,0,0,0,98.8796
1.21766,76.1945,25.6242,0,0,0,0,98.8563
1.23706,76.1252,25.4114,0,0,0,0,98.8335
1.25694,75.9731,25.4646,0,0,0,0,98.8099
1.27808,75.673,25.7964,0,0,0,0,98.7844
1.30183,75.1485,26.4176,0,0,0,0,98.7552
1.3312,74.4031,27.4939,0,0,0,0,98.7184
1.37525,73.5002,28.4576,0,0,0,0,98.6617
1.42525,72.2542,29.8507,0,0,0,0,98.5954
1.47525,70.8094,31.5698,0,0,0,0,98.5269
1.52525,69.608,32.5361,0,0,0,0,98.4562
1.56074,69.127,32.0395,0,0,0,0,98.4048
1.60637,69.2363,29.957,0,0,0,0,98.3371
1.65637,68.1708,30.8709,0,0,0,0,98.2609
1.70637,67.2283,31.3599,0,0,0,0,98.1827
1.74345,66.9414,30.365,0,0,0,0,98.1234
1.79345,66.8188,27.9328,0,0,0,0,98.0417
1.84345,66.0423,25.9525,0,0,0,0,97.958
1.89345,66.1944,21.3963,0,0,0,0,97.8723
1.90667,66.152,20.6846,0,0,0,0,97.8493
1.91894,65.9581,21.0139,0,0,0,0,97.8278
1.93173,65.6718,21.6157,0,0,0,0,97.8053
1.94561,65.2692,22.5306,0,0,0,0,97.7808
1.96164,64.7939,23.5728,0,0,0,0,97.7522
1.98078,64.1341,25.0183,0,0,0,0,97.7178
2.00706,62.7556,27.2989,0,0,0,0,97.6702
2.04648,58.0149,29.8555,0,0,0,0,97.5977
2.08116,52.3029,32.2575,0,0,0,0,97.5331
2.09416,49.2256,32.4453,0,0,0,0,97.5087
2.10523,47.0138,32.3771,0,0,0,0,97.4881
2.11531,44.7319,31.9488,0,0,0,0,97.4693
2.12484,42.7141,31.3455,0,0,0,0,97.4516
2.13412,40.8757,30.5677,0,0,0,0,97.4342
2.14335,39.1601,29.607,0,0,0,0,97.4169
2.15276,37.5736,28.3298,0,0,0,0,97.3993
2.16274,36.196,26.5393,0,0,0,0,97.3805
2.17427,35.2046,24.5068,0,0,0,0,97.3587
2.18886,34.1897,21.8123,0,0,0,0,97.3311
2.21074,32.8426,17.7614,0,0,0,0,97.2896
2.24356,30.549,12.052,0,0,0,0,97.227
2.26064,27.5007,9.32375,0,0,0,0,97.1942
2.2742,25.6844,8.18904,0,0,0,0,97.1682
2.28711,24.4647,7.64939,0,0,0,0,97.1433
2.30006,23.1856,7.39993,0,0,0,0,97.1183
2.31368,21.7281,7.55325,0,0,0,0,97.092
2.32933,20.0124,8.02264,0,0,0,0,97.0617
2.34968,17.7687,8.94367,0,0,0,0,97.0222
2.3802,15.1974,8.4802,0,0,0,0,96.9628
2.42599,10.5573,10.0229,0,0,0,0,96.8734
2.46562,5.93768,10.5959,0,0,0,0,96.7959
2.48259,3.40283,9.70492,0,0,0,0,96.7626
2.4998,2.06317,8.72587,0,0,0,0,96.7289
2.51886,0.656488,7.69777,0,0,0,0,96.6916
2.5402,-0.762728,6.21223,0,0,0,0,96.6498
2.56898,-2.06554,3.16699,0,0,0,0,96.5934
2.61214,-3.81894,0.979301,0,0,0,0,96.509
2.63209,-5.80332,2.55792,0,0,0,0,96.47
2.64941,-7.08426,3.1494,0,0,0,0,96.4361
2.66645,-8.52119,2.96163,0,0,0,0,96.4029
2.68708,-10.2355,2.37027,0,0,0,0,96.3626
2.71802,-12.4398,1.27189,0,0,0,0,96.3024
2.76443,-14.6395,1.05135,0,0,0,0,96.2124
2.81443,-15.7292,2.16475,0,0,0,0,96.1158
2.86443,-16.8636,1.05043,0,0,0,0,96.0197
2.89961,-17.6922,0.455353,0,0,0,0,95.9524
2.92453,-17.7781,1.26387,0,0,0,0,95.9049
2.95951,-17.3986,3.18321,0,0,0,0,95.8384
3,-18.0258,3.07347,0,0,0,0,95.765
3.01,-18.4334,3.22782,0,0,0,0,95.745
3.02,-18.8401,3.38201,0,0,0,0,95.724
3.03,-19.2078,3.52181,0,0,0,0,95.706
3.04,-19.5396,3.6483,0,0,0,0,95.684
3.05,-19.8421,3.76401,0,0,0,0,95.673
3.06,-20.108,3.86609,0,0,0,0,95.649
3.07,-20.347,3.95823,0,0,0,0,95.636
3.08,-20.5549,4.0388,0,0,0,0,95.612
3.09,-20.741,4.11127,0,0,0,0,95.595
3.1,-20.9074,4.17641,0,0,0,0,95.57
3.11,-21.0658,4.23866,0,0,0,0,95.553
3.12,-21.2148,4.29742,0,0,0,0,95.541
3.13,-21.3387,4.3468,0,0,0,0,95.516
3.14,-21.4545,4.39321,0,0,0,0,95.502
3.15,-21.553,4.43313,0,0,0,0,95.48
3.16,-21.6437,4.47017,0,0,0,0,95.462
3.17,-21.7243,4.50344,0,0,0,0,95.44
3.18,-21.8048,4.53671,0,0,0,0,95.422
3.19,-21.8825,4.56899,0,0,0,0,95.41
3.2,-21.9414,4.59416,0,0,0,0,95.389
3.21,-21.9893,4.61521,0,0,0,0,95.368
3.22,-22.0337,4.63499,0,0,0,0,95.35
3.23,-22.0735,4.65301,0,0,0,0,95.337
3.24,-22.0975,4.66509,0,0,0,0,95.316
3.25,-22.1137,4.6742,0,0,0,0,95.299
3.26,-22.1203,4.6797,0,0,0,0,95.28
3.27,-22.1197,4.68248,0,0,0,0,95.263
3.28,-22.1113,4.68227,0,0,0,0,95.244
3.29,-22.0976,4.68008,0,0,0,0,95.221
3.3,-22.0877,4.6793,0,0,0,0,95.208
3.31,-22.0718,4.67626,0,0,0,0,95.192
3.32,-22.0475,4.67001,0,0,0,0,95.173
3.33,-22.0178,4.6617,0,0,0,0,95.145
3.34,-21.9989,4.65749,0,0,0,0,95.134
3.35,-21.9778,4.65245,0,0,0,0,95.115
3.36,-21.9562,4.6472,0,0,0,0,95.099
3.37,-21.9311,4.64061,0,0,0,0,95.079
3.38,-21.9059,4.63397,0,0,0,0,95.062
3.39,-21.8792,4.62675,0,0,0,0,95.049
3.4,-21.8442,4.61638,0,0,0,0,95.029
3.41,-21.8073,4.60523,0,0,0,0,95.01
3.42,-21.7705,4.59411,0,0,0,0,94.988
3.43,-21.7338,4.58302,0,0,0,0,94.974
3.44,-21.6972,4.57197,0,0,0,0,94.957
3.45,-21.6608,4.56096,0,0,0,0,94.937
3.46,-21.6245,4.54998,0,0,0,0,94.921
3.47,-21.5883,4.53904,0,0,0,0,94.905
3.48,-21.5522,4.52813,0,0,0,0,94.892
3.49,-21.5163,4.51726,0,0,0,0,94.862
3.5,-21.4805,4.50642,0,0,0,0,94.849
3.51,-21.4448,4.49563,0,0,0,0,94.838
3.52,-21.4092,4.48486,0,0,0,0,94.819
3.53,-21.3737,4.47414,0,0,0,0,94.8
3.54,-21.3384,4.46344,0,0,0,0,94.785
3.55,-21.3032,4.45279,0,0,0,0,94.763
3.56,-21.2681,4.44216,0,0,0,0,94.746
3.57,-21.2331,4.43158,0,0,0,0,94.733
3.58,-21.1983,4.42102,0,0,0,0,94.719
3.59,-21.1636,4.4105,0,0,0,0,94.7
3.6,-21.129,4.40002,0,0,0,0,94.679
3.61,-21.0945,4.38957,0,0,0,0,94.666
3.62,-21.0601,4.37915,0,0,0,0,94.646
3.63,-21.0259,4.36879,0,0,0,0,94.627
3.64,-20.9919,4.35848,0,0,0,0,94.611
3.65,-20.9579,4.3482,0,0,0,0,94.594
3.66,-20.9241,4.33796,0,0,0,0,94.578
3.67,-20.8904,4.32775,0,0,0,0,94.564
3.68,-20.8569,4.31758,0,0,0,0,94.542
3.69,-20.8234,4.30743,0,0,0,0,94.529
3.7,-20.79,4.29732,0,0,0,0,94.515
3.71,-20.7529,4.28572,0,0,0,0,94.495
3.72,-20.7127,4.2729,0,0,0,0,94.48
3.73,-20.6696,4.25894,0,0,0,0,94.461
3.74,-20.6281,4.24558,0,0,0,0,94.451
3.75,-20.5765,4.22823,0,0,0,0,94.431
3.76,-20.5224,4.20989,0,0,0,0,94.406
3.77,-20.481,4.19651,0,0,0,0,94.395
3.78,-20.4404,4.18345,0,0,0,0,94.373
3.79,-20.4084,4.17375,0,0,0,0,94.365
3.8,-20.3732,4.16275,0,0,0,0,94.346
3.81,-20.3353,4.1507,0,0,0,0,94.33
3.82,-20.2957,4.13797,0,0,0,0,94.315
3.83,-20.2523,4.12369,0,0,0,0,94.301
3.84,-20.2014,4.10648,0,0,0,0,94.278
3.85,-20.156,4.0914,0,0,0,0,94.262
3.86,-20.1146,4.07785,0,0,0,0,94.248
3.87,-20.0724,4.06399,0,0,0,0,94.233
3.88,-20.0274,4.04902,0,0,0,0,94.21
3.89,-19.9916,4.03768,0,0,0,0,94.195
3.9,-19.9612,4.02846,0,0,0,0,94.181
3.91,-19.931,4.01931,0,0,0,0,94.157
3.92,-19.9009,4.01018,0,0,0,0,94.152
3.93,-19.8709,4.00109,0,0,0,0,94.129
3.94,-19.841,3.99201,0,0,0,0,94.119
3.95,-19.8112,3.98297,0,0,0,0,94.097
3.96,-19.7815,3.97396,0,0,0,0,94.085
3.97,-19.7519,3.96497,0,0,0,0,94.07
3.98,-19.7224,3.95601,0,0,0,0,94.05
3.99,-19.693,3.94707,0,0,0,0,94.037
4,-19.6636,3.93817,0,0,0,0,94.018
4.01,-19.6344,3.92929,0,0,0,0,94.004
4.02,-19.6053,3.92043,0,0,0,0,93.983
4.03,-19.5762,3.91161,0,0,0,0,93.968
4.04,-19.5473,3.90281,0,0,0,0,93.959
4.05,-19.5184,3.89403,0,0,0,0,93.937
4.06,-19.4907,3.88569,0,0,0,0,93.923
4.07,-19.4654,3.87837,0,0,0,0,93.902
4.08,-19.448,3.87413,0,0,0,0,93.89
4.09,-19.4303,3.86984,0,0,0,0,93.873
4.1,-19.4143,3.86619,0,0,0,0,93.858
4.11,-19.3981,3.86245,0,0,0,0,93.846
4.12,-19.3752,3.85603,0,0,0,0,93.83
4.13,-19.3471,3.84747,0,0,0,0,93.815
4.14,-19.3188,3.83888,0,0,0,0,93.796
4.15,-19.2907,3.83031,0,0,0,0,93.782
4.16,-19.2627,3.82178,0,0,0,0,93.761
4.17,-19.2348,3.81326,0,0,0,0,93.747
4.18,-19.2069,3.80478,0,0,0,0,93.737
4.19,-19.1791,3.79632,0,0,0,0,93.72
4.2,-19.1515,3.78788,0,0,0,0,93.703
4.21,-19.1239,3.77947,0,0,0,0,93.682
4.22,-19.0964,3.77108,0,0,0,0,93.671
4.23,-19.069,3.76272,0,0,0,0,93.656
4.24,-19.0416,3.75438,0,0,0,0,93.638
4.25,-19.0144,3.74607,0,0,0,0,93.625
4.26,-18.9872,3.73778,0,0,0,0,93.616
4.27,-18.957,3.72823,0,0,0,0,93.591
4.28,-18.9211,3.71635,0,0,0,0,93.572
4.29,-18.8942,3.70815,0,0,0,0,93.554
4.3,-18.8674,3.69997,0,0,0,0,93.544
4.31,-18.8408,3.69182,0,0,0,0,93.529
4.32,-18.8142,3.68369,0,0,0,0,93.512
4.33,-18.7982,3.67992,0,0,0,0,93.507
4.34,-18.7771,3.67404,0,0,0,0,93.488
4.35,-18.7507,3.66596,0,0,0,0,93.472
4.36,-18.7244,3.6579,0,0,0,0,93.456
4.37,-18.6981,3.64987,0,0,0,0,93.43
4.38,-18.6719,3.64186,0,0,0,0,93.429
4.39,-18.6458,3.63387,0,0,0,0,93.409
4.4,-18.6198,3.62591,0,0,0,0,93.391
4.41,-18.5939,3.61799,0,0,0,0,93.372
4.42,-18.5697,3.61072,0,0,0,0,93.363
4.43,-18.5522,3.60627,0,0,0,0,93.354
4.44,-18.5266,3.59842,0,0,0,0,93.334
4.45,-18.501,3.59058,0,0,0,0,93.32
4.46,-18.4755,3.58277,0,0,0,0,93.302
4.47,-18.45,3.57498,0,0,0,0,93.291
4.48,-18.4247,3.56721,0,0,0,0,93.268
4.49,-18.3994,3.55947,0,0,0,0,93.261
4.5,-18.3742,3.55175,0,0,0,0,93.244
4.51,-18.3406,3.54051,0,0,0,0,93.227
4.52,-18.3069,3.52926,0,0,0,0,93.213
4.53,-18.2739,3.51823,0,0,0,0,93.203
4.54,-18.233,3.50396,0,0,0,0,93.183
4.55,-18.1945,3.49064,0,0,0,0,93.171
4.56,-18.1532,3.47614,0,0,0,0,93.149
4.57,-18.1218,3.46573,0,0,0,0,93.142
4.58,-18.0854,3.45322,0,0,0,0,93.129
4.59,-18.0418,3.4377,0,0,0,0,93.107
4.6,-18.0048,3.42493,0,0,0,0,93.091
4.61,-17.9756,3.41538,0,0,0,0,93.076
4.62,-17.9519,3.4081,0,0,0,0,93.067
4.63,-17.9271,3.40039,0,0,0,0,93.048
4.64,-17.9035,3.39314,0,0,0,0,93.035
4.65,-17.8799,3.38592,0,0,0,0,93.016
4.66,-17.8565,3.37872,0,0,0,0,93.009
4.67,-17.8331,3.37153,0,0,0,0,92.989
4.68,-17.8097,3.36437,0,0,0,0,92.979
4.69,-17.7865,3.35724,0,0,0,0,92.964
4.7,-17.7634,3.35015,0,0,0,0,92.947
4.71,-17.7403,3.34307,0,0,0,0,92.934
4.72,-17.7173,3.33601,0,0,0,0,92.918
4.73,-17.6944,3.32898,0,0,0,0,92.903
4.74,-17.6715,3.32196,0,0,0,0,92.893
4.75,-17.6487,3.31496,0,0,0,0,92.875
4.76,-17.626,3.30798,0,0,0,0,92.857
4.77,-17.6034,3.30101,0,0,0,0,92.851
4.78,-17.5808,3.29407,0,0,0,0,92.829
4.79,-17.5583,3.28715,0,0,0,0,92.819
4.8,-17.5349,3.27986,0,0,0,0,92.801
4.81,-17.5125,3.27297,0,0,0,0,92.788
4.82,-17.4902,3.26611,0,0,0,0,92.776
4.83,-17.4679,3.25926,0,0,0,0,92.763
4.84,-17.4424,3.251,0,0,0,0,92.745
4.85,-17.4169,3.24276,0,0,0,0,92.733
4.86,-17.3897,3.23375,0,0,0,0,92.717
4.87,-17.3641,3.22544,0,0,0,0,92.703
4.88,-17.3395,3.21755,0,0,0,0,92.685
4.89,-17.3177,3.21083,0,0,0,0,92.674
4.9,-17.296,3.20414,0,0,0,0,92.665
4.91,-17.2743,3.19746,0,0,0,0,92.644
4.92,-17.2527,3.1908,0,0,0,0,92.628
4.93,-17.2312,3.18416,0,0,0,0,92.623
4.94,-17.2097,3.17753,0,0,0,0,92.608
4.95,-17.1883,3.17093,0,0,0,0,92.593
4.96,-17.1649,3.16346,0,0,0,0,92.572
4.97,-17.1414,3.15594,0,0,0,0,92.567
4.98,-17.1097,3.1449,0,0,0,0,92.546
4.99,-17.0838,3.1363,0,0,0,0,92.531
5,-17.0628,3.12983,0,0,0,0,92.518
5.01,-17.0419,3.12338,0,0,0,0,92.507
5.02,-17.0211,3.11695,0,0,0,0,92.495
5.03,-17.0003,3.11053,0,0,0,0,92.48
5.04,-16.9796,3.10413,0,0,0,0,92.465
5.05,-16.9589,3.09775,0,0,0,0,92.457
5.06,-16.9285,3.08714,0,0,0,0,92.436
5.07,-16.9021,3.07827,0,0,0,0,92.425
5.08,-16.8762,3.06956,0,0,0,0,92.409
5.09,-16.8551,3.06296,0,0,0,0,92.399
5.1,-16.8317,3.05535,0,0,0,0,92.378
5.11,-16.8115,3.0491,0,0,0,0,92.373
5.12,-16.7914,3.04287,0,0,0,0,92.354
5.13,-16.7713,3.03665,0,0,0,0,92.343
5.14,-16.7512,3.03045,0,0,0,0,92.327
5.15,-16.7312,3.02427,0,0,0,0,92.313
5.16,-16.7214,3.02248,0,0,0,0,92.298
5.17,-16.7254,3.02681,0,0,0,0,92.287
5.18,-16.7305,3.03159,0,0,0,0,92.278
5.19,-16.7282,3.03313,0,0,0,0,92.265
5.2,-16.7189,3.0316,0,0,0,0,92.255
5.21,-16.6989,3.02539,0,0,0,0,92.239
5.22,-16.679,3.0192,0,0,0,0,92.217
5.23,-16.6591,3.01302,0,0,0,0,92.207
5.24,-16.6455,3.0096,0,0,0,0,92.197
5.25,-16.6317,3.0061,0,0,0,0,92.176
5.26,-16.6296,3.0077,0,0,0,0,92.17
5.27,-16.6238,3.00772,0,0,0,0,92.156
5.28,-16.6163,3.00697,0,0,0,0,92.146
5.29,-16.6014,3.00296,0,0,0,0,92.133
5.3,-16.5817,2.99684,0,0,0,0,92.121
5.31,-16.5621,2.99072,0,0,0,0,92.105
5.32,-16.5425,2.98462,0,0,0,0,92.092
5.33,-16.523,2.97854,0,0,0,0,92.084
5.34,-16.4938,2.96816,0,0,0,0,92.072
5.35,-16.4428,2.94808,0,0,0,0,92.052
5.36,-16.3963,2.92998,0,0,0,0,92.041
5.37,-16.3503,2.91205,0,0,0,0,92.024
5.38,-16.3126,2.89776,0,0,0,0,92.014
5.39,-16.2763,2.88411,0,0,0,0,92.004
5.4,-16.2359,2.86861,0,0,0,0,91.987
5.41,-16.1999,2.85504,0,0,0,0,91.976
5.42,-16.1642,2.84158,0,0,0,0,91.963
5.43,-16.1291,2.82838,0,0,0,0,91.948
5.44,-16.0987,2.81724,0,0,0,0,91.935
5.45,-16.0726,2.808,0,0,0,0,91.93
5.46,-16.0355,2.79383,0,0,0,0,91.908
5.47,-16.0066,2.78333,0,0,0,0,91.897
5.48,-15.9814,2.77444,0,0,0,0,91.881
5.49,-15.9637,2.76895,0,0,0,0,91.873
5.5,-15.9462,2.76348,0,0,0,0,91.861
5.51,-15.9278,2.75766,0,0,0,0,91.846
5.52,-15.9101,2.75213,0,0,0,0,91.836
5.53,-15.8892,2.74515,0,0,0,0,91.82
5.54,-15.8719,2.73974,0,0,0,0,91.813
5.55,-15.847,2.73095,0,0,0,0,91.797
5.56,-15.8221,2.72208,0,0,0,0,91.787
5.57,-15.7921,2.71095,0,0,0,0,91.778
5.58,-15.7514,2.69491,0,0,0,0,91.76
5.59,-15.7123,2.67958,0,0,0,0,91.75
5.6,-15.6698,2.66272,0,0,0,0,91.735
5.61,-15.6297,2.64685,0,0,0,0,91.72
5.62,-15.5963,2.63407,0,0,0,0,91.706
5.63,-15.5717,2.62521,0,0,0,0,91.695
5.64,-15.5515,2.61839,0,0,0,0,91.687
5.65,-15.5267,2.60942,0,0,0,0,91.674
5.66,-15.499,2.59917,0,0,0,0,91.656
5.67,-15.4799,2.59278,0,0,0,0,91.646
5.68,-15.4633,2.58751,0,0,0,0,91.63
5.69,-15.4473,2.58255,0,0,0,0,91.623
5.7,-15.4314,2.57759,0,0,0,0,91.612
5.71,-15.4155,2.57265,0,0,0,0,91.595
5.72,-15.3996,2.56772,0,0,0,0,91.576
5.73,-15.3848,2.56328,0,0,0,0,91.574
5.74,-15.3848,2.56559,0,0,0,0,91.57
5.75,-15.369,2.56068,0,0,0,0,91.549
5.76,-15.3533,2.55577,0,0,0,0,91.536
5.77,-15.3376,2.55087,0,0,0,0,91.524
5.78,-15.3219,2.54599,0,0,0,0,91.514
5.79,-15.3063,2.54111,0,0,0,0,91.505
5.8,-15.2794,2.53102,0,0,0,0,91.491
5.81,-15.2409,2.51556,0,0,0,0,91.474
5.82,-15.2087,2.50296,0,0,0,0,91.462
5.83,-15.1816,2.49269,0,0,0,0,91.451
5.84,-15.1565,2.48336,0,0,0,0,91.435
5.85,-15.141,2.47847,0,0,0,0,91.429
5.86,-15.1215,2.47174,0,0,0,0,91.414
5.87,-15.1046,2.46617,0,0,0,0,91.406
5.88,-15.0819,2.45788,0,0,0,0,91.389
5.89,-15.0642,2.45192,0,0,0,0,91.383
5.9,-15.0389,2.44239,0,0,0,0,91.36
5.91,-15.0241,2.43778,0,0,0,0,91.359
5.92,-15.0094,2.43318,0,0,0,0,91.337
5.93,-14.9947,2.42859,0,0,0,0,91.326
5.94,-14.98,2.42401,0,0,0,0,91.318
5.95,-14.9704,2.42176,0,0,0,0,91.301
5.96,-14.9813,2.42917,0,0,0,0,91.295
5.97,-14.9877,2.43444,0,0,0,0,91.284
5.98,-14.9885,2.43711,0,0,0,0,91.274
5.99,-14.9808,2.43581,0,0,0,0,91.257
6,-14.9761,2.43593,0,0,0,0,91.248
6.01,-14.9683,2.43455,0,0,0,0,91.235
6.02,-14.96,2.43296,0,0,0,0,91.225
6.03,-14.9478,2.42947,0,0,0,0,91.213
6.04,-14.9332,2.42489,0,0,0,0,91.196
6.05,-14.9252,2.42344,0,0,0,0,91.193
6.06,-14.9107,2.41887,0,0,0,0,91.174
6.07,-14.8962,2.4143,0,0,0,0,91.161
6.08,-14.8885,2.41296,0,0,0,0,91.149
6.09,-14.8891,2.41557,0,0,0,0,91.144
6.1,-14.8814,2.41424,0,0,0,0,91.128
6.11,-14.8754,2.41372,0,0,0,0,91.125
6.12,-14.861,2.40916,0,0,0,0,91.105
6.13,-14.8465,2.4046,0,0,0,0,91.093
6.14,-14.8321,2.40005,0,0,0,0,91.083
6.15,-14.8178,2.39552,0,0,0,0,91.067
6.16,-14.8035,2.39099,0,0,0,0,91.058
6.17,-14.7936,2.38859,0,0,0,0,91.043
6.18,-14.7977,2.39288,0,0,0,0,91.039
6.19,-14.7933,2.39312,0,0,0,0,91.025
6.2,-14.7868,2.39233,0,0,0,0,91.009
6.21,-14.7876,2.39505,0,0,0,0,91.001
6.22,-14.7872,2.39716,0,0,0,0,90.989
6.23,-14.7865,2.39919,0,0,0,0,90.983
6.24,-14.7742,2.39563,0,0,0,0,90.971
6.25,-14.7599,2.39108,0,0,0,0,90.957
6.26,-14.7456,2.38654,0,0,0,0,90.946
6.27,-14.7314,2.38201,0,0,0,0,90.935
6.28,-14.7127,2.37531,0,0,0,0,90.919
6.29,-14.6924,2.36781,0,0,0,0,90.911
6.3,-14.6713,2.35994,0,0,0,0,90.897
6.31,-14.6552,2.35447,0,0,0,0,90.89
6.32,-14.6342,2.34662,0,0,0,0,90.875
6.33,-14.6169,2.34053,0,0,0,0,90.87
6.34,-14.5895,2.32954,0,0,0,0,90.854
6.35,-14.5637,2.31929,0,0,0,0,90.846
6.36,-14.5326,2.30642,0,0,0,0,90.831
6.37,-14.5049,2.29522,0,0,0,0,90.815
6.38,-14.4903,2.29034,0,0,0,0,90.81
6.39,-14.4735,2.28442,0,0,0,0,90.797
6.4,-14.4587,2.27948,0,0,0,0,90.782
6.41,-14.4453,2.27523,0,0,0,0,90.776
6.42,-14.432,2.27099,0,0,0,0,90.765
6.43,-14.4187,2.26676,0,0,0,0,90.751
6.44,-14.4055,2.26254,0,0,0,0,90.746
6.45,-14.3923,2.25833,0,0,0,0,90.728
6.46,-14.3791,2.25413,0,0,0,0,90.716
6.47,-14.366,2.24994,0,0,0,0,90.708
6.48,-14.3602,2.24936,0,0,0,0,90.698
6.49,-14.3533,2.24825,0,0,0,0,90.685
6.5,-14.3481,2.24796,0,0,0,0,90.674
6.51,-14.3441,2.24828,0,0,0,0,90.661
6.52,-14.3452,2.25115,0,0,0,0,90.659
6.53,-14.3321,2.24695,0,0,0,0,90.648
6.54,-14.319,2.24275,0,0,0,0,90.627
6.55,-14.306,2.23857,0,0,0,0,90.626
6.56,-14.293,2.2344,0,0,0,0,90.607
6.57,-14.2744,2.22745,0,0,0,0,90.598
6.58,-14.2566,2.22089,0,0,0,0,90.589
6.59,-14.2366,2.21319,0,0,0,0,90.576
6.6,-14.2193,2.20683,0,0,0,0,90.57
6.61,-14.1939,2.19642,0,0,0,0,90.559
6.62,-14.1623,2.18284,0,0,0,0,90.539
6.63,-14.1451,2.17652,0,0,0,0,90.53
6.64,-14.1326,2.1725,0,0,0,0,90.52
6.65,-14.1201,2.16848,0,0,0,0,90.513
6.66,-14.1076,2.16448,0,0,0,0,90.5
6.67,-14.0952,2.1605,0,0,0,0,90.493
6.68,-14.0829,2.15653,0,0,0,0,90.48
6.69,-14.0705,2.15257,0,0,0,0,90.466
6.7,-14.0582,2.14861,0,0,0,0,90.459
6.71,-14.0459,2.14467,0,0,0,0,90.445
6.72,-14.0386,2.1432,0,0,0,0,90.435
6.73,-14.0356,2.14394,0,0,0,0,90.431
6.74,-14.0233,2.14,0,0,0,0,90.411
6.75,-14.0145,2.13778,0,0,0,0,90.399
6.76,-14.0201,2.14289,0,0,0,0,90.396
6.77,-14.0182,2.14422,0,0,0,0,90.379
6.78,-14.024,2.14944,0,0,0,0,90.373
6.79,-14.0259,2.15267,0,0,0,0,90.364
6.8,-14.0208,2.1524,0,0,0,0,90.352
6.81,-14.0131,2.15075,0,0,0,0,90.34
6.82,-14.0063,2.14955,0,0,0,0,90.331
6.83,-13.9967,2.14697,0,0,0,0,90.325
6.84,-13.9845,2.14299,0,0,0,0,90.308
6.85,-13.9723,2.13903,0,0,0,0,90.302
6.86,-13.9601,2.13507,0,0,0,0,90.288
6.87,-13.9413,2.12773,0,0,0,0,90.281
6.88,-13.9145,2.11624,0,0,0,0,90.267
6.89,-13.8914,2.10659,0,0,0,0,90.262
6.9,-13.8592,2.0923,0,0,0,0,90.249
6.91,-13.8257,2.07725,0,0,0,0,90.242
6.92,-13.7838,2.05783,0,0,0,0,90.228
6.93,-13.7433,2.0391,0,0,0,0,90.22
6.94,-13.6989,2.01833,0,0,0,0,90.211
6.95,-13.6485,1.99438,0,0,0,0,90.198
6.96,-13.5998,1.97131,0,0,0,0,90.185
6.97,-13.5591,1.9523,0,0,0,0,90.176
6.98,-13.5224,1.93536,0,0,0,0,90.163
6.99,-13.4953,1.92334,0,0,0,0,90.149
7,-13.4847,1.91993,0,0,0,0,90.146
7.01,-13.4725,1.9157,0,0,0,0,90.137
7.02,-13.4556,1.90895,0,0,0,0,90.126
7.03,-13.4368,1.90122,0,0,0,0,90.114
7.04,-13.4207,1.89491,0,0,0,0,90.103
7.05,-13.4089,1.89083,0,0,0,0,90.098
7.06,-13.3891,1.8825,0,0,0,0,90.085
7.07,-13.3691,1.87412,0,0,0,0,90.079
7.08,-13.34,1.86084,0,0,0,0,90.067
7.09,-13.3076,1.8459,0,0,0,0,90.058
7.1,-13.2706,1.82844,0,0,0,0,90.04
7.11,-13.248,1.81853,0,0,0,0,90.033
7.12,-13.2305,1.81134,0,0,0,0,90.027
7.13,-13.2082,1.80157,0,0,0,0,90.019
7.14,-13.1776,1.78735,0,0,0,0,89.999
7.15,-13.1633,1.78178,0,0,0,0,89.994
7.16,-13.1516,1.7776,0,0,0,0,89.99
7.17,-13.1288,1.76747,0,0,0,0,89.975
7.18,-13.1096,1.75923,0,0,0,0,89.963
7.19,-13.0991,1.75567,0,0,0,0,89.951
7.2,-13.0897,1.75266,0,0,0,0,89.946
7.21,-13.0804,1.74965,0,0,0,0,89.937
7.22,-13.0792,1.75103,0,0,0,0,89.927
7.23,-13.08,1.75342,0,0,0,0,89.917
7.24,-13.0815,1.75621,0,0,0,0,89.908
7.25,-13.0821,1.75858,0,0,0,0,89.9
7.26,-13.0784,1.75859,0,0,0,0,89.891
7.27,-13.0697,1.75592,0,0,0,0,89.874
7.28,-13.075,1.76081,0,0,0,0,89.872
7.29,-13.0737,1.76213,0,0,0,0,89.858
7.3,-13.0778,1.76636,0,0,0,0,89.852
7.31,-13.078,1.7685,0,0,0,0,89.839
7.32,-13.0835,1.77349,0,0,0,0,89.836
7.33,-13.0776,1.77236,0,0,0,0,89.825
7.34,-13.0681,1.76929,0,0,0,0,89.811
7.35,-13.0611,1.76751,0,0,0,0,89.802
7.36,-13.0605,1.76925,0,0,0,0,89.799
7.37,-13.0511,1.76617,0,0,0,0,89.788
7.38,-13.0416,1.7631,0,0,0,0,89.77
7.39,-13.0322,1.76004,0,0,0,0,89.768
7.4,-13.0229,1.75698,0,0,0,0,89.758
7.41,-13.0135,1.75393,0,0,0,0,89.745
7.42,-13.0122,1.75528,0,0,0,0,89.734
7.43,-13.0218,1.76257,0,0,0,0,89.73
7.44,-13.0268,1.7674,0,0,0,0,89.716
7.45,-13.0396,1.77653,0,0,0,0,89.713
7.46,-13.0432,1.78057,0,0,0,0,89.701
7.47,-13.0456,1.78401,0,0,0,0,89.687
7.48,-13.0589,1.79343,0,0,0,0,89.685
7.49,-13.0632,1.79794,0,0,0,0,89.671
7.5,-13.0718,1.80483,0,0,0,0,89.663
7.51,-13.0809,1.81197,0,0,0,0,89.661
7.52,-13.0721,1.80927,0,0,0,0,89.646
7.53,-13.0631,1.80642,0,0,0,0,89.637
7.54,-13.0534,1.80324,0,0,0,0,89.631
7.55,-13.0438,1.80005,0,0,0,0,89.623
7.56,-13.0313,1.79526,0,0,0,0,89.608
7.57,-13.0104,1.78577,0,0,0,0,89.599
7.58,-12.9951,1.77942,0,0,0,0,89.589
7.59,-12.9857,1.77629,0,0,0,0,89.584
7.6,-12.9746,1.77226,0,0,0,0,89.573
7.61,-12.9636,1.76824,0,0,0,0,89.566
7.62,-12.9487,1.762,0,0,0,0,89.559
7.63,-12.9254,1.75106,0,0,0,0,89.55
7.64,-12.8953,1.73629,0,0,0,0,89.535
7.65,-12.875,1.72699,0,0,0,0,89.526
7.66,-12.863,1.72236,0,0,0,0,89.522
7.67,-12.8455,1.71458,0,0,0,0,89.512
7.68,-12.8259,1.70563,0,0,0,0,89.505
7.69,-12.8,1.69304,0,0,0,0,89.494
7.7,-12.7743,1.6806,0,0,0,0,89.479
7.71,-12.7647,1.67725,0,0,0,0,89.473
7.72,-12.756,1.67435,0,0,0,0,89.465
7.73,-12.7473,1.67146,0,0,0,0,89.457
7.74,-12.7386,1.66857,0,0,0,0,89.449
7.75,-12.7342,1.66815,0,0,0,0,89.44
7.76,-12.7297,1.66767,0,0,0,0,89.429
7.77,-12.7297,1.6697,0,0,0,0,89.423
7.78,-12.7259,1.6696,0,0,0,0,89.414
7.79,-12.7195,1.66802,0,0,0,0,89.404
7.8,-12.7141,1.66705,0,0,0,0,89.395
7.81,-12.7103,1.66692,0,0,0,0,89.383
7.82,-12.7161,1.67236,0,0,0,0,89.382
7.83,-12.7096,1.67069,0,0,0,0,89.374
7.84,-12.7009,1.66778,0,0,0,0,89.363
7.85,-12.6898,1.66347,0,0,0,0,89.35
7.86,-12.675,1.65704,0,0,0,0,89.345
7.87,-12.6573,1.64889,0,0,0,0,89.332
7.88,-12.6488,1.64604,0,0,0,0,89.328
7.89,-12.6356,1.64046,0,0,0,0,89.32
7.9,-12.6168,1.63168,0,0,0,0,89.313
7.91,-12.5894,1.6178,0,0,0,0,89.305
7.92,-12.5533,1.5989,0,0,0,0,89.295
7.93,-12.5142,1.57817,0,0,0,0,89.28
7.94,-12.4897,1.56588,0,0,0,0,89.278
7.95,-12.4601,1.5506,0,0,0,0,89.264
7.96,-12.4412,1.54157,0,0,0,0,89.255
7.97,-12.4327,1.53854,0,0,0,0,89.259
7.98,-12.3993,1.52094,0,0,0,0,89.241
7.99,-12.3709,1.50626,0,0,0,0,89.231
8,-12.351,1.49652,0,0,0,0,89.226
8.01,-12.329,1.4855,0,0,0,0,89.214
8.02,-12.315,1.47914,0,0,0,0,89.209
8.03,-12.2984,1.4713,0,0,0,0,89.199
8.04,-12.2842,1.46481,0,0,0,0,89.19
8.05,-12.2736,1.46045,0,0,0,0,89.18
8.06,-12.2663,1.45803,0,0,0,0,89.174
8.07,-12.259,1.45561,0,0,0,0,89.162
8.08,-12.253,1.4539,0,0,0,0,89.16
8.09,-12.2498,1.4539,0,0,0,0,89.147
8.1,-12.2515,1.4568,0,0,0,0,89.139
8.11,-12.2562,1.46154,0,0,0,0,89.129
8.12,-12.2679,1.47042,0,0,0,0,89.123
8.13,-12.2789,1.47896,0,0,0,0,89.121
8.14,-12.2721,1.47683,0,0,0,0,89.109
8.15,-12.2647,1.47435,0,0,0,0,89.093
8.16,-12.2664,1.47728,0,0,0,0,89.088
8.17,-12.2776,1.48599,0,0,0,0,89.081
8.18,-12.2898,1.4953,0,0,0,0,89.071
8.19,-12.3076,1.50796,0,0,0,0,89.065
8.2,-12.3231,1.51933,0,0,0,0,89.056
8.21,-12.3391,1.53102,0,0,0,0,89.053
8.22,-12.3407,1.53405,0,0,0,0,89.04
8.23,-12.3437,1.53791,0,0,0,0,89.03
8.24,-12.3529,1.54554,0,0,0,0,89.026
8.25,-12.3554,1.54911,0,0,0,0,89.013
8.26,-12.3657,1.55743,0,0,0,0,89.01
8.27,-12.3679,1.56086,0,0,0,0,89.005
8.28,-12.36,1.55817,0,0,0,0,88.994
8.29,-12.3521,1.55547,0,0,0,0,88.987
8.3,-12.33,1.54405,0,0,0,0,88.978
8.31,-12.3015,1.52871,0,0,0,0,88.968
8.32,-12.2761,1.51521,0,0,0,0,88.965
8.33,-12.2392,1.49462,0,0,0,0,88.948
8.34,-12.2184,1.48392,0,0,0,0,88.954
8.35,-12.1715,1.45705,0,0,0,0,88.938
8.36,-12.1257,1.43083,0,0,0,0,88.931
8.37,-12.0789,1.40392,0,0,0,0,88.92
8.38,-12.0398,1.3817,0,0,0,0,88.91
8.39,-12.0137,1.36745,0,0,0,0,88.899
8.4,-12.0071,1.36521,0,0,0,0,88.902
8.41,-11.9863,1.35421,0,0,0,0,88.885
8.42,-11.979,1.35157,0,0,0,0,88.879
8.43,-11.9725,1.34936,0,0,0,0,88.873
8.44,-11.9659,1.34715,0,0,0,0,88.862
8.45,-11.9657,1.34884,0,0,0,0,88.858
8.46,-11.9689,1.35276,0,0,0,0,88.85
8.47,-11.9693,1.35484,0,0,0,0,88.84
8.48,-11.9734,1.35931,0,0,0,0,88.836
8.49,-11.9693,1.35868,0,0,0,0,88.823
8.5,-11.9737,1.36334,0,0,0,0,88.817
8.51,-11.9798,1.36906,0,0,0,0,88.814
8.52,-11.9731,1.36679,0,0,0,0,88.804
8.53,-11.9665,1.36453,0,0,0,0,88.797
8.54,-11.9599,1.36227,0,0,0,0,88.792
8.55,-11.933,1.34716,0,0,0,0,88.782
8.56,-11.8997,1.32798,0,0,0,0,88.772
8.57,-11.8705,1.31134,0,0,0,0,88.766
8.58,-11.8399,1.29378,0,0,0,0,88.759
8.59,-11.8061,1.27412,0,0,0,0,88.744
8.6,-11.7922,1.26707,0,0,0,0,88.741
8.61,-11.781,1.2617,0,0,0,0,88.73
8.62,-11.7749,1.25966,0,0,0,0,88.728
8.63,-11.769,1.25762,0,0,0,0,88.722
8.64,-11.7606,1.25408,0,0,0,0,88.715
8.65,-11.7344,1.23904,0,0,0,0,88.701
8.66,-11.719,1.23095,0,0,0,0,88.695
8.67,-11.7081,1.22569,0,0,0,0,88.692
8.68,-11.6871,1.21396,0,0,0,0,88.682
8.69,-11.6653,1.2016,0,0,0,0,88.672
8.7,-11.6505,1.19381,0,0,0,0,88.665
8.71,-11.6403,1.18894,0,0,0,0,88.659
8.72,-11.6294,1.18357,0,0,0,0,88.653
8.73,-11.6133,1.17487,0,0,0,0,88.642
8.74,-11.6039,1.17046,0,0,0,0,88.634
8.75,-11.5984,1.16861,0,0,0,0,88.629
8.76,-11.593,1.16675,0,0,0,0,88.622
8.77,-11.5875,1.16491,0,0,0,0,88.614
8.78,-11.5821,1.16306,0,0,0,0,88.608
8.79,-11.5737,1.15927,0,0,0,0,88.607
8.8,-11.5432,1.14101,0,0,0,0,88.595
8.81,-11.515,1.12415,0,0,0,0,88.58
8.82,-11.4931,1.1114,0,0,0,0,88.576
8.83,-11.4777,1.10293,0,0,0,0,88.564
8.84,-11.4726,1.10122,0,0,0,0,88.559
8.85,-11.4808,1.10825,0,0,0,0,88.558
8.86,-11.483,1.11137,0,0,0,0,88.552
8.87,-11.4779,1.10964,0,0,0,0,88.547
8.88,-11.4611,1.10014,0,0,0,0,88.53
8.89,-11.4445,1.09074,0,0,0,0,88.528
8.9,-11.424,1.07873,0,0,0,0,88.517
8.91,-11.4123,1.07253,0,0,0,0,88.515
8.92,-11.392,1.06064,0,0,0,0,88.507
8.93,-11.3731,1.04959,0,0,0,0,88.495
8.94,-11.3576,1.0408,0,0,0,0,88.482
8.95,-11.3548,1.0405,0,0,0,0,88.482
8.96,-11.3682,1.05105,0,0,0,0,88.471
8.97,-11.3939,1.06991,0,0,0,0,88.465
8.98,-11.4261,1.09325,0,0,0,0,88.459
8.99,-11.4596,1.1175,0,0,0,0,88.449
9,-11.503,1.14853,0,0,0,0,88.451
9.01,-11.5245,1.16485,0,0,0,0,88.438
9.02,-11.5465,1.18152,0,0,0,0,88.43
9.03,-11.5716,1.20044,0,0,0,0,88.425
9.04,-11.592,1.21612,0,0,0,0,88.413
9.05,-11.6242,1.23993,0,0,0,0,88.414
9.06,-11.6396,1.25234,0,0,0,0,88.402
9.07,-11.6565,1.26579,0,0,0,0,88.398
9.08,-11.6645,1.27327,0,0,0,0,88.389
9.09,-11.6716,1.28008,0,0,0,0,88.378
9.1,-11.6908,1.29526,0,0,0,0,88.373
9.11,-11.7129,1.31243,0,0,0,0,88.369
9.12,-11.7272,1.32435,0,0,0,0,88.364
9.13,-11.7282,1.3271,0,0,0,0,88.356
9.14,-11.7219,1.32485,0,0,0,0,88.35
9.15,-11.7157,1.32262,0,0,0,0,88.338
9.16,-11.7095,1.32038,0,0,0,0,88.338
9.17,-11.6859,1.30607,0,0,0,0,88.334
9.18,-11.6383,1.27507,0,0,0,0,88.324
9.19,-11.5858,1.24054,0,0,0,0,88.309
9.2,-11.5497,1.21736,0,0,0,0,88.308
9.21,-11.5111,1.19233,0,0,0,0,88.301
9.22,-11.4716,1.16658,0,0,0,0,88.291
9.23,-11.4419,1.14764,0,0,0,0,88.286
9.24,-11.4147,1.13044,0,0,0,0,88.277
9.25,-11.3975,1.12011,0,0,0,0,88.273
9.26,-11.3787,1.10869,0,0,0,0,88.266
9.27,-11.3592,1.09675,0,0,0,0,88.261
9.28,-11.3331,1.08004,0,0,0,0,88.252
9.29,-11.3095,1.06515,0,0,0,0,88.245
9.3,-11.2893,1.05249,0,0,0,0,88.239
9.31,-11.2688,1.03967,0,0,0,0,88.23
9.32,-11.257,1.03301,0,0,0,0,88.219
9.33,-11.2554,1.03353,0,0,0,0,88.22
9.34,-11.2579,1.03696,0,0,0,0,88.21
9.35,-11.2649,1.04363,0,0,0,0,88.205
9.36,-11.2685,1.04794,0,0,0,0,88.2
9.37,-11.2638,1.0463,0,0,0,0,88.19
9.38,-11.2626,1.04716,0,0,0,0,88.181
9.39,-11.2753,1.05797,0,0,0,0,88.172
9.4,-11.3075,1.08291,0,0,0,0,88.169
9.41,-11.3413,1.10902,0,0,0,0,88.168
9.42,-11.3552,1.1209,0,0,0,0,88.158
9.43,-11.3649,1.12982,0,0,0,0,88.154
9.44,-11.3613,1.12907,0,0,0,0,88.15
9.45,-11.3503,1.12297,0,0,0,0,88.137
9.46,-11.3329,1.11213,0,0,0,0,88.134
9.47,-11.3082,1.09598,0,0,0,0,88.131
9.48,-11.2761,1.07446,0,0,0,0,88.115
9.49,-11.251,1.05787,0,0,0,0,88.109
9.5,-11.2409,1.05224,0,0,0,0,88.105
9.51,-11.2343,1.04919,0,0,0,0,88.1
9.52,-11.2254,1.04439,0,0,0,0,88.09
9.53,-11.2207,1.04274,0,0,0,0,88.084
9.54,-11.2233,1.04636,0,0,0,0,88.073
9.55,-11.2542,1.071,0,0,0,0,88.068
9.56,-11.298,1.10517,0,0,0,0,88.067
9.57,-11.3322,1.13236,0,0,0,0,88.066
9.58,-11.339,1.13933,0,0,0,0,88.052
9.59,-11.3498,1.14931,0,0,0,0,88.054
9.6,-11.3446,1.14743,0,0,0,0,88.041
9.61,-11.3315,1.13963,0,0,0,0,88.032
9.62,-11.3264,1.13777,0,0,0,0,88.031
9.63,-11.3127,1.12945,0,0,0,0,88.019
9.64,-11.3077,1.1276,0,0,0,0,88.023
9.65,-11.2791,1.10808,0,0,0,0,88.008
9.66,-11.2571,1.09344,0,0,0,0,88.003
9.67,-11.2373,1.08048,0,0,0,0,87.997
9.68,-11.2187,1.06827,0,0,0,0,87.987
9.69,-11.214,1.06656,0,0,0,0,87.987
9.7,-11.1994,1.05738,0,0,0,0,87.978
9.71,-11.1857,1.04883,0,0,0,0,87.979
9.72,-11.1567,1.02866,0,0,0,0,87.963
9.73,-11.1319,1.01153,0,0,0,0,87.96
9.74,-11.108,0.995095,0,0,0,0,87.95
9.75,-11.0984,0.989516,0,0,0,0,87.945
9.76,-11.0941,0.987961,0,0,0,0,87.941
9.77,-11.0898,0.986409,0,0,0,0,87.934
9.78,-11.0855,0.984859,0,0,0,0,87.926
9.79,-11.0865,0.987383,0,0,0,0,87.924
9.8,-11.0847,0.987725,0,0,0,0,87.925
9.81,-11.0728,0.980293,0,0,0,0,87.909
9.82,-11.0511,0.96529,0,0,0,0,87.904
9.83,-11.031,0.951421,0,0,0,0,87.893
9.84,-11.0269,0.949951,0,0,0,0,87.896
9.85,-11.0087,0.93753,0,0,0,0,87.884
9.86,-10.9979,0.930762,0,0,0,0,87.877
9.87,-10.9939,0.929331,0,0,0,0,87.87
9.88,-10.9988,0.934831,0,0,0,0,87.871
9.89,-10.9954,0.933872,0,0,0,0,87.863
9.9,-10.9914,0.932432,0,0,0,0,87.85
9.91,-10.9979,0.939242,0,0,0,0,87.855
9.92,-10.9939,0.93779,0,0,0,0,87.842
9.93,-10.9899,0.936339,0,0,0,0,87.836
9.94,-10.9859,0.934891,0,0,0,0,87.83
9.95,-10.9858,0.936515,0,0,0,0,87.827
9.96,-10.9836,0.936479,0,0,0,0,87.818
9.97,-10.987,0.94092,0,0,0,0,87.816
9.98,-10.983,0.939459,0,0,0,0,87.811
9.99,-10.9711,0.931714,0,0,0,0,87.804
10,-10.9531,0.919046,0,0,0,0,87.799
10.01,-10.9366,0.907489,0,0,0,0,87.792
10.02,-10.9213,0.896929,0,0,0,0,87.787
10.03,-10.9071,0.887198,0,0,0,0,87.774
10.04,-10.8939,0.878193,0,0,0,0,87.772
10.05,-10.8816,0.869935,0,0,0,0,87.767
10.06,-10.8702,0.86235,0,0,0,0,87.766
10.07,-10.8596,0.855374,0,0,0,0,87.751
10.08,-10.8497,0.848947,0,0,0,0,87.75
10.09,-10.8404,0.843016,0,0,0,0,87.743
10.1,-10.8317,0.837535,0,0,0,0,87.739
10.11,-10.8235,0.832409,0,0,0,0,87.735
10.12,-10.8157,0.827626,0,0,0,0,87.73
10.13,-10.8084,0.823184,0,0,0,0,87.719
10.14,-10.8014,0.819048,0,0,0,0,87.714
10.15,-10.7948,0.815191,0,0,0,0,87.707
10.16,-10.7886,0.811587,0,0,0,0,87.707
10.17,-10.7826,0.808211,0,0,0,0,87.698
10.18,-10.7769,0.805042,0,0,0,0,87.69
10.19,-10.7714,0.802062,0,0,0,0,87.693
10.2,-10.7662,0.799252,0,0,0,0,87.681
10.21,-10.7611,0.796596,0,0,0,0,87.676
10.22,-10.7562,0.794081,0,0,0,0,87.668
10.23,-10.7515,0.791693,0,0,0,0,87.663
10.24,-10.747,0.789421,0,0,0,0,87.661
10.25,-10.7425,0.787253,0,0,0,0,87.65
10.26,-10.7382,0.785181,0,0,0,0,87.652
10.27,-10.7341,0.783196,0,0,0,0,87.644
10.28,-10.73,0.781289,0,0,0,0,87.635
10.29,-10.726,0.779454,0,0,0,0,87.631
10.3,-10.7221,0.777684,0,0,0,0,87.624
10.31,-10.7182,0.775973,0,0,0,0,87.624
10.32,-10.7145,0.774316,0,0,0,0,87.617
10.33,-10.7108,0.772708,0,0,0,0,87.607
10.34,-10.7072,0.771144,0,0,0,0,87.603
10.35,-10.7036,0.769625,0,0,0,0,87.602
10.36,-10.7001,0.768151,0,0,0,0,87.592
10.37,-10.6966,0.766711,0,0,0,0,87.587
10.38,-10.6932,0.765301,0,0,0,0,87.581
10.39,-10.6898,0.76392,0,0,0,0,87.573
10.4,-10.6864,0.762564,0,0,0,0,87.57
10.41,-10.6831,0.761231,0,0,0,0,87.571
10.42,-10.6798,0.75992,0,0,0,0,87.556
10.43,-10.6766,0.758628,0,0,0,0,87.558
10.44,-10.6733,0.757354,0,0,0,0,87.553
10.45,-10.6701,0.756097,0,0,0,0,87.54
10.46,-10.6669,0.754854,0,0,0,0,87.542
10.47,-10.6638,0.753625,0,0,0,0,87.531
10.48,-10.6606,0.752409,0,0,0,0,87.531
10.49,-10.6575,0.751204,0,0,0,0,87.521
10.5,-10.6544,0.75001,0,0,0,0,87.52
10.51,-10.6513,0.748826,0,0,0,0,87.515
10.52,-10.6482,0.747651,0,0,0,0,87.509
10.53,-10.6451,0.746484,0,0,0,0,87.498
10.54,-10.6421,0.745325,0,0,0,0,87.493
10.55,-10.6391,0.744227,0,0,0,0,87.496
10.56,-10.6361,0.743131,0,0,0,0,87.486
10.57,-10.6332,0.742036,0,0,0,0,87.474
10.58,-10.65,0.758668,0,0,0,0,87.474
10.59,-10.6737,0.781546,0,0,0,0,87.471
10.6,-10.6913,0.799058,0,0,0,0,87.462
10.61,-10.72,0.826612,0,0,0,0,87.465
10.62,-10.7231,0.831089,0,0,0,0,87.456
10.63,-10.7208,0.830813,0,0,0,0,87.45
10.64,-10.7177,0.829759,0,0,0,0,87.445
10.65,-10.7144,0.828492,0,0,0,0,87.436
10.66,-10.7244,0.839411,0,0,0,0,87.436
10.67,-10.7263,0.842992,0,0,0,0,87.428
10.68,-10.7331,0.850987,0,0,0,0,87.426
10.69,-10.7302,0.850187,0,0,0,0,87.423
10.7,-10.7225,0.844915,0,0,0,0,87.411
10.71,-10.7183,0.842828,0,0,0,0,87.411
10.72,-10.7052,0.832625,0,0,0,0,87.403
10.73,-10.6981,0.827841,0,0,0,0,87.398
10.74,-10.6948,0.826572,0,0,0,0,87.398
10.75,-10.6822,0.816681,0,0,0,0,87.393
10.76,-10.6697,0.806821,0,0,0,0,87.385
10.77,-10.6581,0.797808,0,0,0,0,87.377
10.78,-10.6473,0.789429,0,0,0,0,87.371
10.79,-10.6378,0.782281,0,0,0,0,87.368
10.8,-10.6345,0.780893,0,0,0,0,87.365
10.81,-10.6273,0.775792,0,0,0,0,87.364
10.82,-10.6183,0.769095,0,0,0,0,87.358
10.83,-10.61,0.762934,0,0,0,0,87.345
10.84,-10.6022,0.757259,0,0,0,0,87.344
10.85,-10.5949,0.752021,0,0,0,0,87.34
10.86,-10.5881,0.74718,0,0,0,0,87.34
10.87,-10.5816,0.74265,0,0,0,0,87.327
10.88,-10.5754,0.738426,0,0,0,0,87.327
10.89,-10.5696,0.734502,0,0,0,0,87.325
10.9,-10.564,0.73085,0,0,0,0,87.313
10.91,-10.5588,0.727443,0,0,0,0,87.313
10.92,-10.5538,0.72426,0,0,0,0,87.308
10.93,-10.549,0.721278,0,0,0,0,87.301
10.94,-10.5444,0.718479,0,0,0,0,87.294
10.95,-10.54,0.715856,0,0,0,0,87.292
10.96,-10.5358,0.713386,0,0,0,0,87.293
10.97,-10.5317,0.711052,0,0,0,0,87.283
10.98,-10.5278,0.708843,0,0,0,0,87.279
10.99,-10.524,0.706746,0,0,0,0,87.275
11,-10.5203,0.704751,0,0,0,0,87.264
11.01,-10.5167,0.702849,0,0,0,0,87.265
11.02,-10.5132,0.701031,0,0,0,0,87.265
11.03,-10.5098,0.69929,0,0,0,0,87.249
11.04,-10.5064,0.697618,0,0,0,0,87.255
11.05,-10.5032,0.69601,0,0,0,0,87.238
11.06,-10.5,0.694459,0,0,0,0,87.238
11.07,-10.4968,0.692961,0,0,0,0,87.234
11.08,-10.4937,0.69151,0,0,0,0,87.234
11.09,-10.4907,0.690102,0,0,0,0,87.223
11.1,-10.4878,0.688804,0,0,0,0,87.226
11.11,-10.4848,0.687465,0,0,0,0,87.213
11.12,-10.4822,0.686466,0,0,0,0,87.212
11.13,-10.4796,0.685468,0,0,0,0,87.216
11.14,-10.477,0.684472,0,0,0,0,87.202
11.15,-10.4744,0.683478,0,0,0,0,87.206
11.16,-10.4718,0.682485,0,0,0,0,87.188
11.17,-10.4692,0.681493,0,0,0,0,87.188
11.18,-10.4667,0.680504,0,0,0,0,87.187
11.19,-10.4641,0.679516,0,0,0,0,87.186
11.2,-10.4615,0.678529,0,0,0,0,87.186
11.21,-10.459,0.677544,0,0,0,0,87.179
11.22,-10.4564,0.676561,0,0,0,0,87.169
11.23,-10.4539,0.675579,0,0,0,0,87.16
11.24,-10.451,0.674314,0,0,0,0,87.156
11.25,-10.4483,0.673062,0,0,0,0,87.152
11.26,-10.4455,0.671838,0,0,0,0,87.152
11.27,-10.4428,0.670639,0,0,0,0,87.146
11.28,-10.44,0.669463,0,0,0,0,87.138
11.29,-10.4374,0.668308,0,0,0,0,87.138
11.3,-10.4347,0.667171,0,0,0,0,87.127
11.31,-10.4408,0.675277,0,0,0,0,87.131
11.32,-10.4382,0.674296,0,0,0,0,87.128
11.33,-10.4357,0.673317,0,0,0,0,87.124
11.34,-10.4332,0.672339,0,0,0,0,87.117
11.35,-10.4307,0.671363,0,0,0,0,87.109
11.36,-10.4282,0.670389,0,0,0,0,87.111
11.37,-10.4256,0.669275,0,0,0,0,87.102
11.38,-10.4222,0.667348,0,0,0,0,87.099
11.39,-10.4189,0.665513,0,0,0,0,87.089
11.4,-10.4157,0.663762,0,0,0,0,87.087
11.41,-10.419,0.669088,0,0,0,0,87.089
11.42,-10.4166,0.668118,0,0,0,0,87.086
11.43,-10.4141,0.667149,0,0,0,0,87.076
11.44,-10.4116,0.666181,0,0,0,0,87.071
11.45,-10.4092,0.665216,0,0,0,0,87.071
11.46,-10.4058,0.663229,0,0,0,0,87.067
11.47,-10.4023,0.661084,0,0,0,0,87.056
11.48,-10.3988,0.659054,0,0,0,0,87.061
11.49,-10.3955,0.657127,0,0,0,0,87.055
11.5,-10.3923,0.655294,0,0,0,0,87.049
11.51,-10.3892,0.653547,0,0,0,0,87.044
11.52,-10.3862,0.651877,0,0,0,0,87.036
11.53,-10.3832,0.650277,0,0,0,0,87.033
11.54,-10.3808,0.64934,0,0,0,0,87.029
11.55,-10.3946,0.666583,0,0,0,0,87.026
11.56,-10.4159,0.692492,0,0,0,0,87.026
11.57,-10.4192,0.698088,0,0,0,0,87.023
11.58,-10.4166,0.697063,0,0,0,0,87.021
11.59,-10.4101,0.691592,0,0,0,0,87.01
11.6,-10.4034,0.685726,0,0,0,0,87.003
11.61,-10.397,0.680334,0,0,0,0,87.004
11.62,-10.3911,0.675368,0,0,0,0,87.002
11.63,-10.3855,0.670788,0,0,0,0,86.999
11.64,-10.3802,0.666555,0,0,0,0,86.99
11.65,-10.3752,0.662592,0,0,0,0,86.984
11.66,-10.3705,0.658902,0,0,0,0,86.987
11.67,-10.366,0.655477,0,0,0,0,86.981
11.68,-10.3617,0.65229,0,0,0,0,86.974
11.69,-10.3576,0.64932,0,0,0,0,86.976
11.7,-10.3537,0.646545,0,0,0,0,86.968
11.71,-10.3499,0.643949,0,0,0,0,86.964
11.72,-10.3463,0.641513,0,0,0,0,86.962
11.73,-10.3429,0.639224,0,0,0,0,86.956
11.74,-10.3395,0.637067,0,0,0,0,86.951
11.75,-10.3363,0.635031,0,0,0,0,86.953
11.76,-10.3332,0.633103,0,0,0,0,86.945
11.77,-10.3301,0.631275,0,0,0,0,86.942
11.78,-10.3272,0.629538,0,0,0,0,86.936
11.79,-10.3243,0.627882,0,0,0,0,86.936
11.8,-10.3215,0.6263,0,0,0,0,86.933
11.81,-10.3187,0.624786,0,0,0,0,86.929
11.82,-10.316,0.623333,0,0,0,0,86.918
11.83,-10.3134,0.621937,0,0,0,0,86.919
11.84,-10.3108,0.620591,0,0,0,0,86.915
11.85,-10.3083,0.619292,0,0,0,0,86.908
11.86,-10.3058,0.618034,0,0,0,0,86.909
11.87,-10.3033,0.616816,0,0,0,0,86.905
11.88,-10.3009,0.615632,0,0,0,0,86.902
11.89,-10.2985,0.61448,0,0,0,0,86.902
11.9,-10.2961,0.613358,0,0,0,0,86.891
11.91,-10.2937,0.612261,0,0,0,0,86.886
11.92,-10.2914,0.61119,0,0,0,0,86.886
11.93,-10.2891,0.61014,0,0,0,0,86.881
11.94,-10.2868,0.609111,0,0,0,0,86.88
11.95,-10.2846,0.6081,0,0,0,0,86.879
11.96,-10.2823,0.607107,0,0,0,0,86.876
11.97,-10.2801,0.606129,0,0,0,0,86.866
11.98,-10.2779,0.605165,0,0,0,0,86.868
11.99,-10.2757,0.604215,0,0,0,0,86.868
12,-10.2735,0.603277,0,0,0,0,86.858
12.01,-10.2714,0.60235,0,0,0,0,86.85
12.02,-10.2692,0.601433,0,0,0,0,86.846
12.03,-10.2671,0.600526,0,0,0,0,86.847
12.04,-10.2649,0.599627,0,0,0,0,86.846
12.05,-10.2628,0.598737,0,0,0,0,86.838
12.06,-10.2607,0.597854,0,0,0,0,86.837
12.07,-10.2586,0.596978,0,0,0,0,86.838
12.08,-10.2565,0.596109,0,0,0,0,86.825
12.09,-10.2544,0.595246,0,0,0,0,86.826
12.1,-10.2524,0.594389,0,0,0,0,86.825
12.11,-10.2503,0.593537,0,0,0,0,86.816
12.12,-10.2482,0.59269,0,0,0,0,86.815
12.13,-10.2462,0.591847,0,0,0,0,86.811
12.14,-10.2441,0.59101,0,0,0,0,86.81
12.15,-10.2421,0.590176,0,0,0,0,86.807
12.16,-10.2401,0.589346,0,0,0,0,86.808
12.17,-10.238,0.588521,0,0,0,0,86.799
12.18,-10.236,0.587698,0,0,0,0,86.794
12.19,-10.234,0.586879,0,0,0,0,86.791
12.2,-10.232,0.586064,0,0,0,0,86.795
12.21,-10.23,0.585252,0,0,0,0,86.793
12.22,-10.228,0.584442,0,0,0,0,86.782
12.23,-10.226,0.583636,0,0,0,0,86.779
12.24,-10.224,0.582832,0,0,0,0,86.776
12.25,-10.222,0.582032,0,0,0,0,86.771
12.26,-10.2201,0.581233,0,0,0,0,86.767
12.27,-10.2181,0.580438,0,0,0,0,86.764
12.28,-10.2161,0.579645,0,0,0,0,86.761
12.29,-10.2142,0.578854,0,0,0,0,86.758
12.3,-10.2122,0.578066,0,0,0,0,86.752
12.31,-10.2103,0.57728,0,0,0,0,86.755
12.32,-10.2083,0.576497,0,0,0,0,86.749
12.33,-10.2064,0.575724,0,0,0,0,86.744
12.34,-10.2045,0.574956,0,0,0,0,86.752
12.35,-10.2026,0.57419,0,0,0,0,86.739
12.36,-10.2007,0.573426,0,0,0,0,86.74
12.37,-10.1988,0.572664,0,0,0,0,86.736
12.38,-10.1968,0.571904,0,0,0,0,86.727
12.39,-10.1949,0.571146,0,0,0,0,86.73
12.4,-10.1931,0.57039,0,0,0,0,86.73
12.41,-10.1912,0.569636,0,0,0,0,86.726
12.42,-10.1893,0.568884,0,0,0,0,86.72
12.43,-10.1874,0.568134,0,0,0,0,86.722
12.44,-10.1855,0.567386,0,0,0,0,86.711
12.45,-10.1837,0.56664,0,0,0,0,86.71
12.46,-10.1818,0.565896,0,0,0,0,86.712
12.47,-10.1799,0.565154,0,0,0,0,86.709
12.48,-10.1781,0.564414,0,0,0,0,86.699
12.49,-10.1762,0.563676,0,0,0,0,86.696
12.5,-10.1744,0.562939,0,0,0,0,86.699
12.51,-10.1725,0.562205,0,0,0,0,86.691
12.52,-10.1707,0.561472,0,0,0,0,86.688
12.53,-10.1689,0.560742,0,0,0,0,86.687
12.54,-10.167,0.560013,0,0,0,0,86.681
12.55,-10.1652,0.559287,0,0,0,0,86.678
12.56,-10.1634,0.558562,0,0,0,0,86.681
12.57,-10.1616,0.557839,0,0,0,0,86.671
12.58,-10.1598,0.557118,0,0,0,0,86.671
12.59,-10.158,0.556399,0,0,0,0,86.67
12.6,-10.1562,0.555682,0,0,0,0,86.666
12.61,-10.1544,0.554967,0,0,0,0,86.662
12.62,-10.1526,0.554253,0,0,0,0,86.663
12.63,-10.1508,0.553542,0,0,0,0,86.651
12.64,-10.149,0.552833,0,0,0,0,86.652
12.65,-10.1472,0.552125,0,0,0,0,86.652
12.66,-10.1455,0.551419,0,0,0,0,86.652
12.67,-10.1437,0.550716,0,0,0,0,86.644
12.68,-10.1419,0.550014,0,0,0,0,86.646
12.69,-10.1402,0.549314,0,0,0,0,86.639
12.7,-10.1384,0.548617,0,0,0,0,86.641
12.71,-10.1367,0.547921,0,0,0,0,86.63
12.72,-10.1349,0.547227,0,0,0,0,86.631
12.73,-10.1332,0.546535,0,0,0,0,86.634
12.74,-10.1314,0.545845,0,0,0,0,86.629
12.75,-10.1297,0.545157,0,0,0,0,86.616
12.76,-10.128,0.54447,0,0,0,0,86.619
12.77,-10.1263,0.543882,0,0,0,0,86.615
12.78,-10.155,0.594714,0,0,0,0,86.612
12.79,-10.1807,0.640712,0,0,0,0,86.615
12.8,-10.2036,0.682357,0,0,0,0,86.615
12.81,-10.1969,0.673837,0,0,0,0,86.605
12.82,-10.1908,0.666103,0,0,0,0,86.613
12.83,-10.1821,0.653834,0,0,0,0,86.608
12.84,-10.174,0.642555,0,0,0,0,86.601
12.85,-10.1666,0.632318,0,0,0,0,86.601
12.86,-10.1597,0.622994,0,0,0,0,86.594
12.87,-10.1533,0.614379,0,0,0,0,86.591
12.88,-10.1473,0.606534,0,0,0,0,86.591
12.89,-10.1418,0.599383,0,0,0,0,86.588
12.9,-10.1367,0.592856,0,0,0,0,86.582
12.91,-10.1319,0.586817,0,0,0,0,86.587
12.92,-10.1273,0.581264,0,0,0,0,86.579
12.93,-10.1231,0.576178,0,0,0,0,86.584
12.94,-10.1191,0.571514,0,0,0,0,86.577
12.95,-10.1154,0.567232,0,0,0,0,86.573
12.96,-10.1119,0.563295,0,0,0,0,86.57
12.97,-10.1085,0.559669,0,0,0,0,86.565
12.98,-10.1053,0.556326,0,0,0,0,86.57
12.99,-10.1023,0.553192,0,0,0,0,86.56
13,-10.0994,0.550289,0,0,0,0,86.561
13.01,-10.0966,0.5476,0,0,0,0,86.553
13.02,-10.0939,0.545105,0,0,0,0,86.553
13.03,-10.0914,0.542785,0,0,0,0,86.556
13.04,-10.0889,0.540625,0,0,0,0,86.552
13.05,-10.0865,0.538609,0,0,0,0,86.547
13.06,-10.0842,0.536725,0,0,0,0,86.547
13.07,-10.082,0.534959,0,0,0,0,86.545
13.08,-10.0799,0.533302,0,0,0,0,86.542
13.09,-10.0778,0.531743,0,0,0,0,86.537
13.1,-10.0757,0.530273,0,0,0,0,86.537
13.11,-10.0737,0.528885,0,0,0,0,86.537
13.12,-10.0717,0.52757,0,0,0,0,86.539
13.13,-10.0698,0.526322,0,0,0,0,86.531
13.14,-10.068,0.525135,0,0,0,0,86.539
13.15,-10.0661,0.524004,0,0,0,0,86.523
13.16,-10.0643,0.522924,0,0,0,0,86.528
13.17,-10.0625,0.52189,0,0,0,0,86.524
13.18,-10.0607,0.520897,0,0,0,0,86.521
13.19,-10.059,0.519944,0,0,0,0,86.524
13.2,-10.0573,0.519025,0,0,0,0,86.512
13.21,-10.0556,0.518144,0,0,0,0,86.517
13.22,-10.0539,0.517296,0,0,0,0,86.512
13.23,-10.0523,0.516474,0,0,0,0,86.513
13.24,-10.0506,0.515677,0,0,0,0,86.505
13.25,-10.049,0.514901,0,0,0,0,86.504
13.26,-10.0474,0.514147,0,0,0,0,86.501
13.27,-10.0458,0.513411,0,0,0,0,86.5
13.28,-10.0442,0.512693,0,0,0,0,86.499
13.29,-10.0426,0.51199,0,0,0,0,86.496
13.3,-10.041,0.511302,0,0,0,0,86.495
13.31,-10.0395,0.510627,0,0,0,0,86.496
13.32,-10.0379,0.509965,0,0,0,0,86.488
13.33,-10.0364,0.509314,0,0,0,0,86.489
13.34,-10.0348,0.508674,0,0,0,0,86.486
13.35,-10.0333,0.508044,0,0,0,0,86.488
13.36,-10.0318,0.507423,0,0,0,0,86.478
13.37,-10.0303,0.506811,0,0,0,0,86.475
13.38,-10.0288,0.506206,0,0,0,0,86.474
13.39,-10.0273,0.505609,0,0,0,0,86.477
13.4,-10.0258,0.505018,0,0,0,0,86.472
13.41,-10.0243,0.504435,0,0,0,0,86.469
13.42,-10.0228,0.503857,0,0,0,0,86.463
13.43,-10.0213,0.503285,0,0,0,0,86.466
13.44,-10.0198,0.502719,0,0,0,0,86.464
13.45,-10.0184,0.502157,0,0,0,0,86.461
13.46,-10.0169,0.501601,0,0,0,0,86.465
13.47,-10.0154,0.501049,0,0,0,0,86.463
13.48,-10.014,0.500501,0,0,0,0,86.454
13.49,-10.0125,0.499958,0,0,0,0,86.456
13.5,-10.0111,0.499419,0,0,0,0,86.454
13.51,-10.0096,0.498883,0,0,0,0,86.452
13.52,-10.0082,0.498352,0,0,0,0,86.457
13.53,-10.0068,0.497824,0,0,0,0,86.449
13.54,-10.0053,0.497299,0,0,0,0,86.441
13.55,-10.0039,0.496778,0,0,0,0,86.444
13.56,-10.0025,0.49626,0,0,0,0,86.446
13.57,-10.0011,0.495745,0,0,0,0,86.445
13.58,-9.99965,0.495233,0,0,0,0,86.442
13.59,-9.99823,0.494725,0,0,0,0,86.44
13.6,-9.99682,0.494219,0,0,0,0,86.43
13.61,-9.99541,0.493716,0,0,0,0,86.435
13.62,-9.99401,0.493216,0,0,0,0,86.431
13.63,-9.99261,0.492719,0,0,0,0,86.433
13.64,-9.99121,0.492225,0,0,0,0,86.433
13.65,-9.98982,0.491733,0,0,0,0,86.426
13.66,-9.98843,0.491244,0,0,0,0,86.425
13.67,-9.98704,0.490758,0,0,0,0,86.426
13.68,-9.98566,0.490274,0,0,0,0,86.425
13.69,-9.98428,0.489793,0,0,0,0,86.422
13.7,-9.9829,0.489315,0,0,0,0,86.42
13.71,-9.98153,0.488839,0,0,0,0,86.418
13.72,-9.98016,0.488365,0,0,0,0,86.417
13.73,-9.97879,0.487894,0,0,0,0,86.413
13.74,-9.97743,0.487426,0,0,0,0,86.421
13.75,-9.97606,0.48696,0,0,0,0,86.411
13.76,-9.97471,0.486497,0,0,0,0,86.415
13.77,-9.97335,0.486036,0,0,0,0,86.411
13.78,-9.972,0.485578,0,0,0,0,86.406
13.79,-9.97065,0.485122,0,0,0,0,86.406
13.8,-9.9693,0.484668,0,0,0,0,86.406
13.81,-9.96796,0.484217,0,0,0,0,86.402
13.82,-9.96661,0.483769,0,0,0,0,86.405
13.83,-9.96528,0.483323,0,0,0,0,86.404
13.84,-9.96394,0.482879,0,0,0,0,86.395
13.85,-9.96261,0.482438,0,0,0,0,86.396
13.86,-9.96128,0.481999,0,0,0,0,86.399
13.87,-9.95995,0.481562,0,0,0,0,86.39
13.88,-9.95863,0.481129,0,0,0,0,86.388
13.89,-9.95731,0.480697,0,0,0,0,86.39
13.9,-9.95599,0.480268,0,0,0,0,86.388
13.91,-9.95467,0.479841,0,0,0,0,86.39
13.92,-9.95336,0.479417,0,0,0,0,86.388
13.93,-9.95205,0.478996,0,0,0,0,86.383
13.94,-9.95074,0.478576,0,0,0,0,86.38
13.95,-9.94944,0.47816,0,0,0,0,86.383
13.96,-9.94813,0.477745,0,0,0,0,86.382
13.97,-9.94683,0.477333,0,0,0,0,86.38
13.98,-9.94554,0.476924,0,0,0,0,86.376
13.99,-9.94424,0.476517,0,0,0,0,86.381
14,-9.94295,0.476112,0,0,0,0,86.375
14.01,-9.94166,0.47571,0,0,0,0,86.373
14.02,-9.94037,0.475311,0,0,0,0,86.371
14.03,-9.93909,0.474913,0,0,0,0,86.374
14.04,-9.93781,0.474519,0,0,0,0,86.373
14.05,-9.93653,0.474126,0,0,0,0,86.37
14.06,-9.93525,0.473737,0,0,0,0,86.376
14.07,-9.93398,0.473349,0,0,0,0,86.363
14.08,-9.93271,0.472965,0,0,0,0,86.365
14.09,-9.93144,0.472582,0,0,0,0,86.369
14.1,-9.93017,0.472202,0,0,0,0,86.362
14.11,-9.9289,0.471825,0,0,0,0,86.364
14.12,-9.92764,0.47145,0,0,0,0,86.359
14.13,-9.92638,0.471078,0,0,0,0,86.364
14.14,-9.92512,0.470708,0,0,0,0,86.358
14.15,-9.92387,0.47034,0,0,0,0,86.357
14.16,-9.92262,0.469976,0,0,0,0,86.355
14.17,-9.92137,0.469613,0,0,0,0,86.356
14.18,-9.92012,0.469253,0,0,0,0,86.361
14.19,-9.91887,0.468896,0,0,0,0,86.351
14.2,-9.91763,0.468541,0,0,0,0,86.356
14.21,-9.91639,0.468189,0,0,0,0,86.347
14.22,-9.91515,0.467839,0,0,0,0,86.349
14.23,-9.91391,0.467492,0,0,0,0,86.347
14.24,-9.91267,0.467147,0,0,0,0,86.351
14.25,-9.91144,0.466805,0,0,0,0,86.344
14.26,-9.91021,0.466465,0,0,0,0,86.344
14.27,-9.91788,0.505376,0,0,0,0,86.347
14.28,-9.92554,0.545109,0,0,0,0,86.351
14.29,-9.92349,0.541914,0,0,0,0,86.339
14.3,-9.92912,0.573715,0,0,0,0,86.338
14.31,-9.93492,0.606958,0,0,0,0,86.341
14.32,-9.93988,0.637103,0,0,0,0,86.343
14.33,-9.94409,0.664402,0,0,0,0,86.342
14.34,-9.94762,0.689106,0,0,0,0,86.341
14.35,-9.95054,0.711454,0,0,0,0,86.337
14.36,-9.95292,0.731674,0,0,0,0,86.341
14.37,-9.95272,0.739663,0,0,0,0,86.338
14.38,-9.94661,0.718226,0,0,0,0,86.335
14.39,-9.9478,0.733281,0,0,0,0,86.334
14.4,-9.94948,0.751224,0,0,0,0,86.334
14.41,-9.95074,0.767482,0,0,0,0,86.334
14.42,-9.95163,0.782171,0,0,0,0,86.337
14.43,-9.94492,0.756682,0,0,0,0,86.33
14.44,-9.94511,0.767864,0,0,0,0,86.329
14.45,-9.94585,0.78234,0,0,0,0,86.329
14.46,-9.94625,0.795361,0,0,0,0,86.327
14.47,-9.94637,0.807187,0,0,0,0,86.326
14.48,-9.94622,0.817788,0,0,0,0,86.326
14.49,-9.94585,0.827399,0,0,0,0,86.331
14.5,-9.94527,0.836045,0,0,0,0,86.331
14.51,-9.94449,0.843813,0,0,0,0,86.322
14.52,-9.94356,0.850838,0,0,0,0,86.325
14.53,-9.94247,0.857141,0,0,0,0,86.316
14.54,-9.94124,0.862771,0,0,0,0,86.327
14.55,-9.9399,0.867838,0,0,0,0,86.322
14.56,-9.93845,0.872393,0,0,0,0,86.32
14.57,-9.9369,0.876478,0,0,0,0,86.323
14.58,-9.93527,0.880078,0,0,0,0,86.319
14.59,-9.93355,0.883292,0,0,0,0,86.326
14.6,-9.93177,0.886156,0,0,0,0,86.316
14.61,-9.92993,0.888702,0,0,0,0,86.316
14.62,-9.92804,0.890957,0,0,0,0,86.321
14.63,-9.9261,0.892949,0,0,0,0,86.317
14.64,-9.92411,0.894704,0,0,0,0,86.321
14.65,-9.92209,0.896238,0,0,0,0,86.316
14.66,-9.92003,0.897552,0,0,0,0,86.317
14.67,-9.91794,0.89869,0,0,0,0,86.313
14.68,-9.91582,0.899666,0,0,0,0,86.319
14.69,-9.91369,0.900497,0,0,0,0,86.306
14.7,-9.91153,0.901197,0,0,0,0,86.31
14.71,-9.90935,0.901776,0,0,0,0,86.314
14.72,-9.90715,0.902248,0,0,0,0,86.315
14.73,-9.90495,0.902622,0,0,0,0,86.311
14.74,-9.90273,0.902907,0,0,0,0,86.313
14.75,-9.9005,0.903112,0,0,0,0,86.309
14.76,-9.89826,0.903246,0,0,0,0,86.311
14.77,-9.89601,0.903314,0,0,0,0,86.308
14.78,-9.89376,0.903324,0,0,0,0,86.316
14.79,-9.8915,0.903282,0,0,0,0,86.309
14.8,-9.88924,0.903191,0,0,0,0,86.309
14.81,-9.88697,0.903059,0,0,0,0,86.309
14.82,-9.8847,0.902888,0,0,0,0,86.313
14.83,-9.88242,0.902683,0,0,0,0,86.307
14.84,-9.88015,0.902448,0,0,0,0,86.308
14.85,-9.87787,0.902186,0,0,0,0,86.301
14.86,-9.87559,0.9019,0,0,0,0,86.301
14.87,-9.87331,0.901592,0,0,0,0,86.305
14.88,-9.87103,0.901265,0,0,0,0,86.312
14.89,-9.86875,0.900922,0,0,0,0,86.303
14.9,-9.86647,0.900564,0,0,0,0,86.307
14.91,-9.86419,0.900193,0,0,0,0,86.306
14.92,-9.86191,0.899812,0,0,0,0,86.303
14.93,-9.85963,0.899421,0,0,0,0,86.306
14.94,-9.85736,0.899021,0,0,0,0,86.299
14.95,-9.85508,0.898615,0,0,0,0,86.308
14.96,-9.85281,0.898204,0,0,0,0,86.304
14.97,-9.85053,0.897787,0,0,0,0,86.304
14.98,-9.84639,0.860142,0,0,0,0,86.297
14.99,-9.84421,0.859673,0,0,0,0,86.306
15,-9.84049,0.82488,0,0,0,0,86.301
15.01,-9.8385,0.826875,0,0,0,0,86.303
15.02,-9.83518,0.795653,0,0,0,0,86.298
15.03,-9.83335,0.800271,0,0,0,0,86.302
15.04,-9.83164,0.808547,0,0,0,0,86.301
15.05,-9.82985,0.816049,0,0,0,0,86.301
15.06,-9.82689,0.785781,0,0,0,0,86.294
15.07,-9.82506,0.791149,0,0,0,0,86.299
15.08,-9.8233,0.800186,0,0,0,0,86.303
15.09,-9.82147,0.80829,0,0,0,0,86.3
15.1,-9.81959,0.815654,0,0,0,0,86.3
15.11,-9.81701,0.785341,0,0,0,0,86.296
15.12,-9.81511,0.790599,0,0,0,0,86.304
15.13,-9.81277,0.762554,0,0,0,0,86.3
15.14,-9.81056,0.732941,0,0,0,0,86.299
15.15,-9.80852,0.706033,0,0,0,0,86.3
15.16,-9.80662,0.68157,0,0,0,0,86.304
15.17,-9.80485,0.659327,0,0,0,0,86.303
15.18,-9.8032,0.639108,0,0,0,0,86.302
