# Time (s),Altitude (m),Vertical velocity (m/s),Vertical acceleration (m/s²),Total velocity (m/s),Total acceleration (m/s²),Position East of launch (m),Position North of launch (m),Lateral distance (m),Lateral direction (°),Lateral velocity (m/s),Lateral acceleration (m/s²),Latitude (°),Longitude (°),Gravitational acceleration (m/s²),Angle of attack (°),Roll rate (°/s),Pitch rate (°/s),Yaw rate (°/s),Mass (g),Motor mass (g),Longitudinal moment of inertia (kg·m²),Rotational moment of inertia (kg·m²),CP location (cm),CG location (cm),Stability margin calibers (​),Mach number (​),Reynolds number (​),Thrust (N),Drag force (N),Drag coefficient (​),Axial drag coefficient (​),Friction drag coefficient (​),Pressure drag coefficient (​),Base drag coefficient (​),Normal force coefficient (​),Pitch moment coefficient (​),Yaw moment coefficient (​),Side force coefficient (​),Roll moment coefficient (​),Roll forcing coefficient (​),Roll damping coefficient (​),Pitch damping coefficient (​),Coriolis acceleration (m/s²),Reference length (cm),Reference area (cm²),Vertical orientation (zenith) (°),Lateral orientation (azimuth) (°),Wind velocity (m/s),Air temperature (°C),Air pressure (mbar),Speed of sound (m/s),Simulation time step (s),Computation time (s)
0.002,-0.0000078,-0.0078298,-3.914718,0.0078489,3.9242774,-0.0000005,0,0.0000005,180,0.0005475,0.2737438,33,-107,9.7913953,86.0667232,0,0,0,29659.2887309,8106.2636492,20.1875746,0.1117395,NaN,171.0991212,NaN,0.0200749,1161013.9774336,173.3072857,0.0001577,0.4288339,0.0003347,0.345364,0.0130047,0.0704652,NaN,NaN,NaN,NaN,NaN,NaN,NaN,NaN,0.000001,15.748,194.778355,86,0,6.7240435,5.9780001,857.4736005,334.921568,0.002,0.0331665
0.004,0.0000155,0.0154877,7.7443803,0.0155256,7.7632913,0.0000011,0,0.0000011,0,0.001083,0.5415398,33,-107,9.7913953,85.8682622,0,0,0,29657.5523801,8104.5272983,20.1864208,0.1117375,NaN,171.094501,NaN,0.0201121,1163168.7973137,519.9218571,0.000183,0.4287084,0.000387,0.3452388,0.0130043,0.0704653,NaN,NaN,NaN,NaN,NaN,NaN,NaN,NaN,0.0000019,15.748,194.778355,86,0,6.7348784,5.9779999,857.473598,334.9215679,0.002,0.0404566
0.006,0.0000853,0.0542957,19.404843,0.0544283,19.4522276,0.000006,0,0.000006,0,0.0037967,1.3569188,33,-107,9.7913953,85.5391001,0,0,0,29655.8160293,8102.7909475,20.1852669,0.1117354,NaN,171.0898802,NaN,0.0201532,1165543.0082052,866.5364286,0.0002304,0.4285704,0.0004852,0.3451012,0.0130038,0.0704654,NaN,NaN,NaN,NaN,NaN,NaN,NaN,NaN,0.0000067,15.748,194.778355,86,0,6.7457134,5.9779994,857.4735906,334.9215677,0.002,0.0464354
0.008,0.000256,0.1164267,31.0666692,0.116711,31.1425309,0.0000179,0,0.0000179,0,0.0081413,2.1723931,33,-107,9.7913953,85.0139831,0,0,0,29654.0796785,8101.0545967,20.1841129,0.1117333,NaN,171.0852588,NaN,0.0202008,1168299.4829829,1213.151,0.0003213,0.4284107,0.0006735,0.3449419,0.0130033,0.0704656,NaN,NaN,NaN,NaN,NaN,NaN,NaN,NaN,0.0000143,15.748,194.778355,86,0,6.7565483,5.9779983,857.4735724,334.921567,0.002,0.0528549
0.01,0.0005743,0.2018833,42.7298586,0.2023763,42.8342006,0.0000402,0,0.0000402,0,0.0141171,2.9879628,33,-107,9.7913953,84.2948246,0,0,0,29652.3433276,8099.3182458,20.1829588,0.1117312,NaN,171.080637,NaN,0.020257,1171548.1074563,1559.7655714,0.00048,0.4282231,0.0010006,0.3447548,0.0130026,0.0704658,NaN,NaN,NaN,NaN,NaN,NaN,NaN,NaN,0.0000248,15.748,194.778355,86,0,6.7673832,5.9779963,857.4735386,334.9215657,0.002,0.0593657
0.012,0.0010869,0.3106684,54.39441,0.311427,54.5272356,0.000076,0,0.000076,0,0.0217241,3.8036277,33,-107,9.7913953,83.3841514,0,0,0,29650.6069768,8097.581895,20.1818045,0.1117291,NaN,171.0760145,NaN,0.0203243,1175438.64694,1906.3801429,0.0007457,0.4279993,0.0015441,0.3445316,0.0130018,0.070466,NaN,NaN,NaN,NaN,NaN,NaN,NaN,NaN,0.0000381,15.748,194.778355,86,0,6.7782182,5.9779929,857.473484,334.9215637,0.002,0.0654348
0.014,0.0018403,0.4427846,66.0603217,0.4438659,66.2216342,0.0001287,0,0.0001287,0,0.0309625,4.6193877,33,-107,9.7913953,82.2853261,0,0,0,29648.870626,8095.8455442,20.1806501,0.111727,NaN,171.0713916,NaN,0.0204059,1180159.468487,2252.9947143,0.0011767,0.4277291,0.0024171,0.344262,0.0130009,0.0704662,NaN,NaN,NaN,NaN,NaN,NaN,NaN,NaN,0.0000543,15.748,194.778355,86,0,6.7890531,5.977988,857.4734039,334.9215608,0.002,0.0706816
0.016,0.0028813,0.5982347,77.727591,0.5996955,77.9173939,0.0002015,0,0.0002015,0,0.0418326,5.4352426,33,-107,9.7913953,81.0028115,0,0,0,29647.1342751,8094.1091934,20.1794956,0.1117249,NaN,171.0667681,NaN,0.0205058,1185935.7237043,2599.6092857,0.0018564,0.4274003,0.0037763,0.343934,0.0129998,0.0704665,NaN,NaN,NaN,NaN,NaN,NaN,NaN,NaN,0.0000734,15.748,194.778355,86,0,6.799888,5.9779813,857.4732931,334.9215567,0.002,0.0746981
0.018,0.0042566,0.7770214,89.3962145,0.7789188,89.614511,0.0002976,0,0.0002976,0,0.0543346,6.2511923,33,-107,9.7913953,79.5424606,0,0,0,29645.3979243,8092.3728425,20.1783409,0.1117229,NaN,171.062144,NaN,0.0206284,1193026.8224678,2946.2238571,0.0028985,0.4269995,0.0058262,0.3435342,0.0129984,0.0704669,NaN,NaN,NaN,NaN,NaN,NaN,NaN,NaN,0.0000954,15.748,194.778355,86,0,6.810723,5.9779723,857.4731469,334.9215512,0.002,0.0786544
0.02,0.0060127,0.9791473,101.0661874,0.9815383,101.3129807,0.0004205,0,0.0004205,0,0.0684686,7.0672363,33,-107,9.7913953,77.911808,0,0,0,29643.6615735,8090.6364917,20.1771862,0.1117208,NaN,171.0575194,NaN,0.0207788,1201723.029629,3292.8384286,0.0044519,0.4265122,0.0088198,0.3430481,0.0129967,0.0704674,NaN,NaN,NaN,NaN,NaN,NaN,NaN,NaN,0.0001202,15.748,194.778355,86,0,6.8215579,5.9779609,857.4729601,334.9215443,0.002,0.0838534
0.022,0.0081934,1.2015323,111.1987357,1.2044663,111.4702717,0.0005729,0,0.0005729,0,0.0840193,7.7757731,33,-107,9.7913953,76.1448317,0,0,0,29641.1236747,8088.0985929,20.1754981,0.1117177,NaN,171.050759,NaN,0.0209601,1212213.0961103,3593.6323661,0.0066705,0.4259305,0.0129873,0.3424677,0.0129948,0.070468,NaN,NaN,NaN,NaN,NaN,NaN,NaN,NaN,0.0001475,15.748,194.778355,86,0,6.8323928,5.9779467,857.4727281,334.9215357,0.002,0.0880473
0.024,0.0108206,1.4256847,112.0830145,1.4291661,112.3567098,0.0007567,0,0.0007567,0,0.0996936,7.8376079,33,-107,9.7913953,74.3959801,0,0,0,29637.7842279,8084.7591461,20.1732764,0.1117137,NaN,171.0418617,NaN,0.0211625,1223917.9849528,3619.5025,0.0094958,0.4252889,0.0181361,0.3418277,0.0129926,0.0704686,NaN,NaN,NaN,NaN,NaN,NaN,NaN,NaN,0.000175,15.748,194.778355,86,0,6.8432278,5.9779297,857.4724486,334.9215254,0.002,0.0910153
0.026,0.0138948,1.6485213,111.4250434,1.6525468,111.697132,0.0009716,0,0.0009716,0,0.1152758,7.7915981,33,-107,9.7913953,72.6919069,0,0,0,29634.4447812,8081.4196994,20.1710543,0.1117097,NaN,171.0329624,NaN,0.0213831,1236673.0694495,3599.552,0.0129336,0.4245989,0.0241951,0.3411393,0.0129903,0.0704693,NaN,NaN,NaN,NaN,NaN,NaN,NaN,NaN,0.0002023,15.748,194.778355,86,0,6.8540627,5.9779097,857.4721216,334.9215133,0.002,0.0940487
0.028,0.0174134,1.8700417,110.7669026,1.8746081,111.037384,0.0012177,0,0.0012177,0,0.1307661,7.7455764,33,-107,9.7913953,71.0339398,0,0,0,29631.1053344,8078.0802526,20.1688318,0.1117057,NaN,171.024061,NaN,0.0216209,1250425.0826929,3579.6015,0.0170084,0.4238651,0.031122,0.3404072,0.0129878,0.0704701,NaN,NaN,NaN,NaN,NaN,NaN,NaN,NaN,0.0002295,15.748,194.778355,86,0,6.8648977,5.9778868,857.4717474,334.9214994,0.002,0.0985267
0.03,0.0213737,2.0902455,110.1085913,2.0953497,110.3774653,0.0014946,0,0.0014946,0,0.1461642,7.6995428,33,-107,9.7913953,69.4230295,0,0,0,29627.7658876,8074.7408059,20.1666087,0.1117017,NaN,171.0151577,NaN,0.021875,1265120.7030144,3559.651,0.0217377,0.4230925,0.0388568,0.3396362,0.0129853,0.070471,NaN,NaN,NaN,NaN,NaN,NaN,NaN,NaN,0.0002566,15.748,194.778355,86,0,6.8757326,5.9778611,857.4713261,334.9214838,0.002,0.1036406
0.032,0.025773,2.3091325,109.4501093,2.3147711,109.7173753,0.0018022,0,0.0018022,0,0.1614703,7.6534972,33,-107,9.7913953,67.8597704,0,0,0,29624.4264409,8071.4013591,20.1643852,0.1116977,NaN,171.0062523,NaN,0.0221445,1280707.0037597,3539.7005,0.0271323,0.4222856,0.0473264,0.3388311,0.0129826,0.0704719,NaN,NaN,NaN,NaN,NaN,NaN,NaN,NaN,0.0002834,15.748,194.778355,86,0,6.8865675,5.9778325,857.4708581,334.9214665,0.002,0.1079269
0.034,0.0306089,2.5267022,108.7914562,2.5328722,109.0571139,0.0021404,0,0.0021404,0,0.1766842,7.6074397,33,-107,9.7913953,66.3444326,0,0,0,29621.0869941,8068.0619123,20.1621612,0.1116937,NaN,170.997345,NaN,0.0224285,1297131.8053376,3519.75,0.0331975,0.4214489,0.0564488,0.3379962,0.0129799,0.0704728,NaN,NaN,NaN,NaN,NaN,NaN,NaN,NaN,0.0003101,15.748,194.778355,86,0,6.8974025,5.977801,857.4703437,334.9214474,0.002,0.1127427
0.036,0.0358785,2.7429544,108.1326321,2.7496525,108.3966809,0.0025089,0,0.0025089,0,0.1918061,7.5613702,33,-107,9.7913952,64.8769953,0,0,0,29617.7475473,8064.7224656,20.1599367,0.1116897,NaN,170.9884356,NaN,0.0227261,1314343.9744455,3499.7995,0.0399341,0.4205868,0.0661367,0.3371358,0.0129771,0.0704739,NaN,NaN,NaN,NaN,NaN,NaN,NaN,NaN,0.0003367,15.748,194.778355,86,0,6.9082374,5.9777668,857.4697832,334.9214267,0.002,0.1179838
0.038,0.0415794,2.9578888,107.4736368,2.9651116,107.7360765,0.0029075,0,0.0029075,0,0.2068357,7.5152888,33,-107,9.7913952,63.4571814,0,0,0,29614.4081006,8061.3830188,20.1577118,0.1116857,NaN,170.9795242,NaN,0.0230365,1332293.6719144,3479.849,0.0473385,0.4197031,0.0763012,0.3362538,0.0129743,0.0704749,NaN,NaN,NaN,NaN,NaN,NaN,NaN,NaN,0.000363,15.748,194.778355,86,0,6.9190723,5.9777297,857.4691768,334.9214042,0.002,0.1221869
0.04,0.0477088,3.1715048,106.8144707,3.1792493,107.0753008,0.0033361,0,0.0033361,0,0.2217732,7.4691954,33,-107,9.7913952,62.084491,0,0,0,29611.0686538,8058.043572,20.1554864,0.1116817,NaN,170.9706109,NaN,0.0233588,1350932.5519273,3459.8985,0.0554038,0.4188016,0.0868539,0.3353541,0.0129714,0.0704761,NaN,NaN,NaN,NaN,NaN,NaN,NaN,NaN,0.0003893,15.748,194.778355,86,0,6.9299073,5.9776899,857.4685248,334.9213801,0.002,0.1262161
0.042,0.0542641,3.3838023,106.155134,3.3920652,106.414354,0.0037945,0,0.0037945,0,0.2366185,7.4230901,33,-107,9.7913952,60.7582336,0,0,0,29607.7292071,8054.7041253,20.1532605,0.1116776,NaN,170.9616955,NaN,0.0236922,1370213.9163046,3439.948,0.0641202,0.4178858,0.0977091,0.33444,0.0129686,0.0704773,NaN,NaN,NaN,NaN,NaN,NaN,NaN,NaN,0.0004153,15.748,194.778355,86,0,6.9407422,5.9776473,857.4678275,334.9213543,0.002,0.1297917
0.044,0.0612426,3.5947809,105.495627,3.603559,105.7532366,0.0042825,0,0.0042825,0,0.2513716,7.3769729,33,-107,9.7913952,59.477559,0,0,0,29604.3897603,8051.3646785,20.1510342,0.1116736,NaN,170.9527781,NaN,0.0240359,1390092.828136,3419.9975,0.0734755,0.416959,0.1087856,0.3335147,0.0129657,0.0704785,NaN,NaN,NaN,NaN,NaN,NaN,NaN,NaN,0.0004412,15.748,194.778355,86,0,6.9515772,5.9776019,857.4670852,334.9213268,0.002,0.1335774
0.046,0.0686419,3.8044402,104.8359502,3.8137303,105.0919489,0.0047999,0,0.0047999,0,0.2660324,7.3308438,33,-106.9999999,9.7913951,58.2414856,0,0,0,29601.0503135,8048.0252318,20.1488074,0.1116696,NaN,170.9438587,NaN,0.0243893,1410526.1893473,3400.047,0.0834556,0.4160239,0.1200077,0.3325812,0.0129628,0.0704798,NaN,NaN,NaN,NaN,NaN,NaN,NaN,NaN,0.0004669,15.748,194.778355,86,0,6.9624121,5.9775538,857.4662981,334.9212976,0.002,0.1364163
0.048,0.0764591,4.01278,104.176104,4.0225788,104.4304915,0.0053465,0,0.0053465,0,0.2806009,7.2847028,33,-106.9999999,9.7913951,57.0489261,0,0,0,29597.7108668,8044.685785,20.1465801,0.1116656,NaN,170.9349372,NaN,0.0247515,1431472.786853,3380.0965,0.0940446,0.4150834,0.1313057,0.3316422,0.01296,0.0704812,NaN,NaN,NaN,NaN,NaN,NaN,NaN,NaN,0.0004925,15.748,194.778355,86,0,6.973247,5.977503,857.4654666,334.9212668,0.002,0.1390343
0.05,0.0846918,4.2199516,103.5917878,4.2302563,103.8447484,0.0059222,0,0.0059222,0,0.2950878,7.2438435,33,-106.9999999,9.7913951,55.8978518,0,0,0,29594.4521806,8041.4270988,20.1444062,0.1116617,NaN,170.9262296,NaN,0.0251221,1452908.0643658,3362.4009133,0.1052341,0.4141392,0.1426251,0.3306994,0.0129572,0.0704826,NaN,NaN,NaN,NaN,NaN,NaN,NaN,NaN,0.0005179,15.748,194.778355,86,0,6.984082,5.9774495,857.4645909,334.9212344,0.002,0.1414851
0.052,0.0933386,4.4268661,103.4631101,4.4376761,103.7157565,0.0065269,0,0.0065269,0,0.3095566,7.2348454,33,-106.9999999,9.7913951,54.7558639,0,0,0,29591.2742549,8038.2491732,20.1422858,0.1116579,NaN,170.9177359,NaN,0.0254829,1473773.4453295,3358.2348065,0.1171103,0.4132372,0.1542585,0.3297986,0.0129546,0.070484,NaN,NaN,NaN,NaN,NaN,NaN,NaN,NaN,0.0005433,15.748,194.778355,86,0,6.9873767,5.9773933,857.4636711,334.9212003,0.002,0.144749
0.054,0.1023992,4.6336752,103.4104075,4.6449902,103.6629252,0.0071604,0,0.0071604,0,0.3240181,7.2311601,33,-106.9999999,9.791395,53.6467512,0,0,0,29588.0963293,8035.0712475,20.1401649,0.1116541,NaN,170.9092405,NaN,0.0258534,1495196.9435399,3356.3236129,0.1296329,0.4123281,0.1658952,0.3288907,0.0129519,0.0704854,NaN,NaN,NaN,NaN,NaN,NaN,NaN,NaN,0.0005687,15.748,194.778355,86,0,6.9906714,5.9773344,857.4627073,334.9211646,0.002,0.1480872
0.056,0.1118732,4.8403788,103.3576721,4.8521986,103.610061,0.0078229,0,0.0078229,0,0.3384723,7.2274725,33,-106.9999999,9.791395,52.5699122,0,0,0,29584.9184036,8031.8933219,20.1380436,0.1116503,NaN,170.9007432,NaN,0.0262331,1517153.5987254,3354.4124194,0.1427936,0.4114136,0.1774863,0.3279773,0.0129493,0.070487,NaN,NaN,NaN,NaN,NaN,NaN,NaN,NaN,0.0005941,15.748,194.778355,86,0,6.9939662,5.9772728,857.4616995,334.9211273,0.002,0.1511375
0.058,0.1217606,5.046977,103.3049041,5.0593012,103.5571641,0.0085143,0,0.0085143,0,0.352919,7.2237826,33,-106.9999999,9.791395,51.5246881,0,0,0,29581.740478,8028.7153962,20.1359219,0.1116464,NaN,170.892244,NaN,0.0266215,1539619.3116425,3352.5012258,0.1565834,0.4104955,0.1889878,0.3270602,0.0129467,0.0704885,NaN,NaN,NaN,NaN,NaN,NaN,NaN,NaN,0.0006195,15.748,194.778355,86,0,6.9972609,5.9772086,857.4606478,334.9210884,0.002,0.1537216
0.06,0.132061,5.2534695,103.2521039,5.266298,103.504235,0.0092346,0,0.0092346,0,0.3673584,7.2200904,33,-106.9999999,9.791395,50.5103737,0,0,0,29578.5625524,8025.5374706,20.1337998,0.1116426,NaN,170.8837431,NaN,0.0270184,1562570.8547371,3350.5900323,0.1709925,0.4095752,0.2003605,0.3261408,0.0129442,0.0704901,NaN,NaN,NaN,NaN,NaN,NaN,NaN,NaN,0.0006448,15.748,194.778355,86,0,7.0005557,5.9771416,857.4595521,334.9210478,0.002,0.1562572
0.062,0.1427743,5.4598565,103.1992717,5.4731889,103.4512738,0.0099838,0,0.0099838,0,0.3817904,7.2163961,33,-106.9999999,9.7913949,49.5262275,0,0,0,29575.3846267,8022.3595449,20.1316772,0.1116388,NaN,170.8752403,NaN,0.0274233,1585985.8833414,3348.6788387,0.1860108,0.4086541,0.2115698,0.3252206,0.0129417,0.0704918,NaN,NaN,NaN,NaN,NaN,NaN,NaN,NaN,0.0006701,15.748,194.778355,86,0,7.0038504,5.977072,857.4584125,334.9210056,0.002,0.1586584
0.064,0.1539003,5.6661377,103.1464081,5.6799738,103.3982811,0.0107618,0,0.0107618,0,0.3962149,7.2126995,33,-106.9999999,9.7913949,48.5714801,0,0,0,29572.2067011,8019.1816193,20.1295542,0.111635,NaN,170.8667357,NaN,0.0278359,1609842.9387001,3346.7676452,0.2016277,0.4077335,0.2225856,0.3243007,0.0129392,0.0704936,NaN,NaN,NaN,NaN,NaN,NaN,NaN,NaN,0.0006955,15.748,194.778355,86,0,7.0071451,5.9769996,857.4572291,334.9209618,0.002,0.1624521
0.066,0.1654388,5.8723131,103.0935132,5.8866527,103.3452571,0.0115686,0,0.0115686,0,0.4106321,7.2090007,33,-106.9999999,9.7913949,47.6453419,0,0,0,29569.0287754,8016.0036937,20.1274308,0.1116312,NaN,170.8582292,NaN,0.0282557,1634121.44403,3344.8564516,0.2178325,0.4068146,0.2333821,0.3233824,0.0129368,0.0704954,NaN,NaN,NaN,NaN,NaN,NaN,NaN,NaN,0.0007208,15.748,194.778355,86,0,7.0104399,5.9769246,857.4560017,334.9209163,0.002,0.1654611
0.068,0.1773894,6.0783828,103.0405876,6.0932256,103.2922022,0.0124043,0,0.0124043,0,0.4250419,7.2052998,33,-106.9999999,9.7913948,46.7470098,0,0,0,29565.8508498,8012.825768,20.1253069,0.1116274,NaN,170.8497209,NaN,0.0286825,1658801.6947247,3342.9452581,0.2346141,0.4058983,0.2439373,0.3224666,0.0129345,0.0704972,NaN,NaN,NaN,NaN,NaN,NaN,NaN,NaN,0.000746,15.748,194.778355,86,0,7.0137346,5.976847,857.4547305,334.9208693,0.002,0.1681767
0.07,0.1897522,6.2843465,102.9876314,6.2996922,103.2391167,0.0132688,0,0.0132688,0,0.4394443,7.2015967,33,-106.9999999,9.7913948,45.8756737,0,0,0,29562.6729241,8009.6478424,20.1231827,0.1116236,NaN,170.8412108,NaN,0.0291159,1683864.8437106,3341.0340645,0.2519613,0.4049856,0.2542332,0.3215543,0.0129322,0.0704991,NaN,NaN,NaN,NaN,NaN,NaN,NaN,NaN,0.0007713,15.748,194.778355,86,0,7.0170294,5.9767666,857.4534154,334.9208206,0.002,0.1704821
0.072,0.2025267,6.4902043,102.9346452,6.5060527,103.1860011,0.014162,0,0.014162,0,0.4538393,7.1978916,33,-106.9999998,9.7913947,45.0305211,0,0,0,29559.4949985,8006.4699167,20.1210579,0.1116197,NaN,170.8326989,NaN,0.0295556,1709292.8828598,3339.122871,0.2698631,0.4040774,0.2642548,0.3206463,0.0129299,0.0705011,NaN,NaN,NaN,NaN,NaN,NaN,NaN,NaN,0.0007966,15.748,194.778355,86,0,7.0203241,5.9766836,857.4520566,334.9207702,0.002,0.1727865
0.074,0.2157129,6.6959561,102.8816292,6.7123069,103.1328557,0.0150841,0,0.0150841,0,0.4682269,7.1941843,33,-106.9999998,9.7913947,44.2107422,0,0,0,29556.3170729,8003.2919911,20.1189328,0.1116159,NaN,170.8241851,NaN,0.0300013,1735068.6212617,3337.2116774,0.2883081,0.4031744,0.2739906,0.3197435,0.0129278,0.0705031,NaN,NaN,NaN,NaN,NaN,NaN,NaN,NaN,0.0008218,15.748,194.778355,86,0,7.0236188,5.9765979,857.450654,334.9207183,0.002,0.1749901
0.076,0.2293104,6.9016018,102.8285839,6.9184548,103.0796808,0.0160349,0,0.0160349,0,0.482607,7.190475,33,-106.9999998,9.7913947,43.4155331,0,0,0,29553.1391472,8000.1140654,20.1168072,0.1116121,NaN,170.8156695,NaN,0.0304528,1761175.6610609,3335.3004839,0.3072854,0.4022772,0.2834316,0.3188463,0.0129257,0.0705052,NaN,NaN,NaN,NaN,NaN,NaN,NaN,NaN,0.0008471,15.748,194.778355,86,0,7.0269136,5.9765095,857.4492076,334.9206647,0.002,0.1773358
0.078,0.2433192,7.1071414,102.7755096,7.1244963,103.0264769,0.0170145,0,0.0170145,0,0.4969797,7.1867637,33,-106.9999998,9.7913946,42.6440997,0,0,0,29549.9612216,7996.9361398,20.1146812,0.1116083,NaN,170.8071521,NaN,0.0309097,1787598.3714738,3333.3892903,0.3267839,0.4013864,0.2925715,0.3179555,0.0129236,0.0705073,NaN,NaN,NaN,NaN,NaN,NaN,NaN,NaN,0.0008723,15.748,194.778355,86,0,7.0302083,5.9764184,857.4477175,334.9206096,0.002,0.1802776
0.08,0.2577389,7.3125748,102.7224066,7.3304313,102.9732443,0.0180229,0,0.0180229,0,0.511345,7.1830504,33,-106.9999998,9.7913946,41.8956599,0,0,0,29546.7832959,7993.7582142,20.1125548,0.1116045,NaN,170.7986329,NaN,0.0313718,1814321.8615157,3331.4780968,0.3467928,0.4005026,0.3014063,0.3170715,0.0129216,0.0705095,NaN,NaN,NaN,NaN,NaN,NaN,NaN,NaN,0.0008975,15.748,194.778355,86,0,7.0335031,5.9763247,857.4461836,334.9205528,0.002,0.1826293
0.082,0.2725694,7.5179019,102.6692754,7.5362599,102.9199833,0.0190599,0,0.0190599,0,0.5257029,7.1793351,33,-106.9999998,9.7913945,41.1694461,0,0,0,29543.6053703,7990.5802885,20.110428,0.1116007,NaN,170.7901118,NaN,0.0318389,1841331.9518901,3329.5669032,0.3673013,0.3996263,0.3099337,0.3161947,0.0129197,0.0705118,NaN,NaN,NaN,NaN,NaN,NaN,NaN,NaN,0.0009227,15.748,194.778355,86,0,7.0367978,5.9762283,857.4446061,334.9204943,0.002,0.1848648
0.084,0.2878104,7.7231228,102.6161161,7.7419819,102.8666942,0.0201257,0,0.0201257,0,0.5400534,7.1756179,33,-106.9999998,9.7913945,40.4647069,0,0,0,29540.4274446,7987.4023629,20.1083007,0.1115968,NaN,170.7815888,NaN,0.0323107,1868615.1464232,3327.6557097,0.3882989,0.3987577,0.3181534,0.3153257,0.0129179,0.0705141,NaN,NaN,NaN,NaN,NaN,NaN,NaN,NaN,0.0009479,15.748,194.778355,86,0,7.0400925,5.9761292,857.4429849,334.9204343,0.002,0.1870556
0.086,0.3034617,7.9282373,102.5629293,7.9475972,102.8133776,0.0212201,0,0.0212201,0,0.5543964,7.1718987,33,-106.9999998,9.7913944,39.7807087,0,0,0,29537.249519,7984.2244372,20.106173,0.111593,NaN,170.7730641,NaN,0.032787,1896158.6033641,3325.7445161,0.4097754,0.3978972,0.3260665,0.3144646,0.0129161,0.0705165,NaN,NaN,NaN,NaN,NaN,NaN,NaN,NaN,0.0009731,15.748,194.778355,86,0,7.0433873,5.9760275,857.44132,334.9203727,0.002,0.1892733
0.088,0.3195232,8.1332454,102.5097152,8.1531059,102.7600335,0.0223432,0,0.0223432,0,0.5687319,7.1681776,33,-106.9999998,9.7913944,39.1167367,0,0,0,29534.0715934,7981.0465116,20.1040448,0.1115892,NaN,170.7645375,NaN,0.0332676,1923950.1068171,3323.8333226,0.4317206,0.3970452,0.3336755,0.3136119,0.0129144,0.0705189,NaN,NaN,NaN,NaN,NaN,NaN,NaN,NaN,0.0009983,15.748,194.778355,86,0,7.046682,5.9759231,857.4396115,334.9203094,0.002,0.1914665
0.09,0.3359946,8.338147,102.4564742,8.3585079,102.7066625,0.023495,0,0.023495,0,0.58306,7.1644546,33,-106.9999997,9.7913944,38.4720958,0,0,0,29530.8936677,7977.8685859,20.1019163,0.1115854,NaN,170.7560091,NaN,0.0337523,1951978.0385208,3321.922129,0.4541248,0.3962018,0.340984,0.3127677,0.0129128,0.0705214,NaN,NaN,NaN,NaN,NaN,NaN,NaN,NaN,0.0010234,15.748,194.778355,86,0,7.0499768,5.975816,857.4378594,334.9202445,0.002,0.1937848
0.092,0.3528757,8.5429422,102.4032065,8.5638031,102.6532647,0.0246755,0,0.0246755,0,0.5973807,7.1607298,33,-106.9999997,9.7913943,37.8461109,0,0,0,29527.7157421,7974.6906603,20.0997873,0.1115816,NaN,170.7474788,NaN,0.0342409,1980231.3501505,3320.0109355,0.4769782,0.3953673,0.3479966,0.3119322,0.0129113,0.0705239,NaN,NaN,NaN,NaN,NaN,NaN,NaN,NaN,0.0010485,15.748,194.778355,86,0,7.0532715,5.9757063,857.4360638,334.920178,0.002,0.196562
0.094,0.3701663,8.7476307,102.3499125,8.7689915,102.5998406,0.0258845,0,0.0258845,0,0.6116939,7.1570031,33,-106.9999997,9.7913942,37.2381277,0,0,0,29524.5378164,7971.5127347,20.0976578,0.1115778,NaN,170.7389467,NaN,0.0347332,2008699.5362811,3318.0997419,0.5002717,0.3945419,0.3547184,0.3111056,0.0129098,0.0705265,NaN,NaN,NaN,NaN,NaN,NaN,NaN,NaN,0.0010737,15.748,194.778355,86,0,7.0565662,5.9755939,857.4342246,334.9201099,0.002,0.1986464
0.096,0.3878661,8.9522126,102.2965925,8.974073,102.5463903,0.0271222,0,0.0271222,0,0.6259997,7.1532746,33,-106.9999997,9.7913942,36.6475128,0,0,0,29521.3598908,7968.334809,20.095528,0.111574,NaN,170.7304128,NaN,0.0352291,2037372.6081168,3316.1885484,0.523996,0.3937255,0.3611556,0.310288,0.0129084,0.0705291,NaN,NaN,NaN,NaN,NaN,NaN,NaN,NaN,0.0010988,15.748,194.778355,86,0,7.059861,5.9754789,857.4323418,334.9200402,0.002,0.2007184
0.098,0.405975,9.1566879,102.2432467,9.1790476,102.4929143,0.0283885,0,0.0283885,0,0.640298,7.1495443,33,-106.9999997,9.7913941,36.0736534,0,0,0,29518.1819651,7965.1568834,20.0933977,0.1115701,NaN,170.721877,NaN,0.0357283,2066241.0680681,3314.2773548,0.5481425,0.3929185,0.3673146,0.3094796,0.0129071,0.0705318,NaN,NaN,NaN,NaN,NaN,NaN,NaN,NaN,0.0011239,15.748,194.778355,86,0,7.0631557,5.9753612,857.4304155,334.9199689,0.002,0.202877
0.1,0.4244927,9.3610564,102.1898755,9.3839152,102.4394127,0.0296834,0,0.0296834,0,0.6545888,7.1458122,33,-106.9999997,9.7913941,35.5159577,0,0,0,29515.0040395,7961.9789577,20.091267,0.1115663,NaN,170.7133394,NaN,0.0362308,2095295.8852329,3312.3661613,0.5727024,0.3921207,0.3732025,0.3086803,0.0129058,0.0705346,NaN,NaN,NaN,NaN,NaN,NaN,NaN,NaN,0.001149,15.748,194.778355,86,0,7.0664505,5.9752408,857.4284458,334.9198959,0.002,0.2047591
0.102,0.4434191,9.5653182,102.1364804,9.5886757,102.3858872,0.0310069,0,0.0310069,0,0.6688722,7.1420785,33,-106.9999997,9.791394,34.9876261,0,0,0,29511.8261139,7958.8010321,20.0891358,0.1115625,NaN,170.7047999,NaN,0.0367435,2124941.7501772,3310.4549677,0.5976289,0.3913213,0.3786546,0.3078792,0.0129046,0.0705375,NaN,NaN,NaN,NaN,NaN,NaN,NaN,NaN,0.001174,15.748,194.778355,86,0,7.0735499,5.9751178,857.4264326,334.9198214,0.002,0.206683
0.104,0.4627539,9.7694731,102.0830602,9.7933292,102.3323366,0.0323589,0,0.0323589,0,0.6831481,7.138343,33,-106.9999997,9.791394,34.4741558,0,0,0,29508.6481882,7955.6231064,20.0870042,0.1115587,NaN,170.6962586,NaN,0.0372589,2154747.9075778,3308.5437742,0.6229555,0.3905319,0.3838568,0.307088,0.0129035,0.0705404,NaN,NaN,NaN,NaN,NaN,NaN,NaN,NaN,0.0011991,15.748,194.778355,86,0,7.0806494,5.9749921,857.4243759,334.9197452,0.002,0.208551
0.106,0.4824969,9.9735212,102.0296153,9.9978755,102.2787612,0.0337395,0,0.0337395,0,0.6974165,7.1346057,33,-106.9999996,9.7913939,33.9750086,0,0,0,29505.4702626,7952.4451808,20.0848722,0.1115549,NaN,170.6877155,NaN,0.037777,2184706.8789998,3306.6325806,0.6486746,0.3897525,0.388817,0.3063067,0.0129024,0.0705433,NaN,NaN,NaN,NaN,NaN,NaN,NaN,NaN,0.0012241,15.748,194.778355,86,0,7.0877489,5.9748638,857.4222758,334.9196674,0.002,0.2105747
0.108,0.5026479,10.1774624,101.9761458,10.2023147,102.2251612,0.0351486,0,0.0351486,0,0.7116775,7.1308668,33,-106.9999996,9.7913938,33.4896673,0,0,0,29502.2923369,7949.2672551,20.0827398,0.1115511,NaN,170.6791705,NaN,0.0382977,2214811.5577249,3304.7213871,0.6747794,0.388983,0.3935431,0.3055352,0.0129015,0.0705464,NaN,NaN,NaN,NaN,NaN,NaN,NaN,NaN,0.0012492,15.748,194.778355,86,0,7.0948484,5.9747328,857.4201323,334.9195881,0.002,0.2128082
0.11,0.5232066,10.3812965,101.922652,10.4066466,102.1715368,0.0365862,0,0.0365862,0,0.725931,7.1271261,33,-106.9999996,9.7913938,33.0176349,0,0,0,29499.1144113,7946.0893295,20.0806069,0.1115472,NaN,170.6706237,NaN,0.0388207,2245055.1886869,3302.8101935,0.7012629,0.3882235,0.3980433,0.3047734,0.0129006,0.0705494,NaN,NaN,NaN,NaN,NaN,NaN,NaN,NaN,0.0012742,15.748,194.778355,86,0,7.1019478,5.9745992,857.4179455,334.9195071,0.002,0.2147495
0.112,0.544173,10.5850513,101.8830348,10.6108989,102.1318228,0.0380523,0,0.0380523,0,0.7401789,7.1243558,33,-106.9999996,9.7913937,32.5583692,0,0,0,29495.9082194,7942.8831376,20.0784546,0.1115434,NaN,170.661999,NaN,0.0393461,2275435.3739884,3301.3068545,0.7281222,0.3874736,0.4023261,0.3040213,0.0128998,0.0705526,NaN,NaN,NaN,NaN,NaN,NaN,NaN,NaN,0.0012992,15.748,194.778355,86,0,7.1090473,5.9744629,857.4157152,334.9194245,0.002,0.2166328
0.114,0.5655469,10.7888925,101.9262746,10.8152379,102.1751681,0.0395469,0,0.0395469,0,0.7544329,7.1273794,33,-106.9999996,9.7913937,32.1110372,0,0,0,29492.6737613,7939.6486796,20.0762829,0.1115395,NaN,170.6532964,NaN,0.0398742,2305970.403766,3302.2506426,0.7553734,0.3867328,0.4064027,0.3032781,0.012899,0.0705558,NaN,NaN,NaN,NaN,NaN,NaN,NaN,NaN,0.0013242,15.748,194.778355,86,0,7.1161468,5.9743239,857.4134417,334.9193403,0.002,0.2188007
0.116,0.5873286,10.9928478,101.9833074,11.0196913,102.2323403,0.04107,0,0.04107,0,0.7686948,7.1313676,33,-106.9999996,9.7913936,31.6751703,0,0,0,29489.4393033,7936.4142215,20.0741108,0.1115356,NaN,170.6445919,NaN,0.0404049,2336658.9287591,3303.6022852,0.7830153,0.386001,0.4102809,0.3025436,0.0128983,0.070559,NaN,NaN,NaN,NaN,NaN,NaN,NaN,NaN,0.0013492,15.748,194.778355,86,0,7.1232463,5.9741824,857.4111247,334.9192545,0.002,0.2206649
0.118,0.6095184,11.1969172,102.0403398,11.2242589,102.2895119,0.0426217,0,0.0426217,0,0.7829647,7.1353557,33,-106.9999995,9.7913935,31.2503814,0,0,0,29486.2048452,7933.1797634,20.0719382,0.1115318,NaN,170.6358854,NaN,0.0409382,2367495.8582111,3304.9539278,0.8110429,0.3852779,0.4139677,0.3018179,0.0128977,0.0705623,NaN,NaN,NaN,NaN,NaN,NaN,NaN,NaN,0.0013743,15.748,194.778355,86,0,7.1303458,5.9740381,857.4087644,334.9191671,0.002,0.2225555
0.12,0.6321164,11.4011007,102.0973717,11.428941,102.3466831,0.0442019,0,0.0442019,0,0.7972426,7.1393437,33,-106.9999995,9.7913935,30.8362979,0,0,0,29482.9703871,7929.9453053,20.0697652,0.1115279,NaN,170.627177,NaN,0.041474,2398476.3303354,3306.3055703,0.8394518,0.3845636,0.4174701,0.3011007,0.0128972,0.0705657,NaN,NaN,NaN,NaN,NaN,NaN,NaN,NaN,0.0013993,15.748,194.778355,86,0,7.1374452,5.9738912,857.4063606,334.9190781,0.002,0.224379
0.122,0.6551229,11.6053982,102.1544035,11.6337374,102.4038541,0.0458107,0,0.0458107,0,0.8115285,7.1433318,33,-106.9999995,9.7913934,30.4325612,0,0,0,29479.735929,7926.7108472,20.0675917,0.111524,NaN,170.6184668,NaN,0.0420122,2429595.7055807,3307.6572129,0.8682374,0.383858,0.4207947,0.3003921,0.0128967,0.0705691,NaN,NaN,NaN,NaN,NaN,NaN,NaN,NaN,0.0014244,15.748,194.778355,86,0,7.1445447,5.9737417,857.4039133,334.9189875,0.002,0.2262069
0.124,0.6785381,11.8098097,102.2114351,11.8386481,102.461025,0.047448,0,0.047448,0,0.8258223,7.1473198,33,-106.9999995,9.7913933,30.0388266,0,0,0,29476.5014709,7923.4763892,20.0654177,0.1115201,NaN,170.6097546,NaN,0.0425528,2460849.5553078,3309.0088555,0.8973955,0.3831609,0.4239483,0.299692,0.0128963,0.0705726,NaN,NaN,NaN,NaN,NaN,NaN,NaN,NaN,0.0014495,15.748,194.778355,86,0,7.1516442,5.9735895,857.4014226,334.9188952,0.002,0.2282755
0.126,0.7023623,12.0143354,102.2684668,12.0436732,102.518196,0.049114,0,0.049114,0,0.8401242,7.1513078,33,-106.9999995,9.7913932,29.6547622,0,0,0,29473.2670128,7920.2419311,20.0632433,0.1115162,NaN,170.6010405,NaN,0.0430955,2492233.6510542,3310.3604981,0.9269219,0.3824723,0.4269374,0.2990001,0.012896,0.0705762,NaN,NaN,NaN,NaN,NaN,NaN,NaN,NaN,0.0014746,15.748,194.778355,86,0,7.1587437,5.9734346,857.3988884,334.9188014,0.002,0.2305553
0.128,0.7265956,12.2189751,102.3254987,12.2488126,102.5753671,0.0508085,0,0.0508085,0,0.854434,7.1552959,33,-106.9999995,9.7913932,29.2800489,0,0,0,29470.0325548,7917.007473,20.0610685,0.1115123,NaN,170.5923245,NaN,0.0436405,2523743.9543593,3311.7121407,0.9568127,0.3817921,0.4297681,0.2983166,0.0128958,0.0705798,NaN,NaN,NaN,NaN,NaN,NaN,NaN,NaN,0.0014997,15.748,194.778355,86,0,7.1658432,5.9732771,857.3963107,334.9187059,0.002,0.2331989
0.13,0.7512383,12.4237289,102.3825308,12.4540664,102.6325385,0.0525317,0,0.0525317,0,0.8687518,7.159284,33,-106.9999994,9.7913931,28.9143798,0,0,0,29466.7980967,7913.7730149,20.0588932,0.1115085,NaN,170.5836065,NaN,0.0441876,2555376.607126,3313.0637833,0.9870641,0.3811202,0.4324468,0.2976412,0.0128956,0.0705834,NaN,NaN,NaN,NaN,NaN,NaN,NaN,NaN,0.0015249,15.748,194.778355,86,0,7.1729426,5.973117,857.3936894,334.9186089,0.002,0.2355836
0.132,0.7762906,12.6285967,102.4395635,12.6594345,102.6897104,0.0542835,0,0.0542835,0,0.8830775,7.1632721,33,-106.9999994,9.791393,28.5574597,0,0,0,29463.5636386,7910.5385568,20.0567175,0.1115046,NaN,170.5748867,NaN,0.0447368,2587127.9224921,3314.4154259,1.0176723,0.3804564,0.4349793,0.2969738,0.0128955,0.0705872,NaN,NaN,NaN,NaN,NaN,NaN,NaN,NaN,0.00155,15.748,194.778355,86,0,7.1800421,5.9729541,857.3910246,334.9185102,0.002,0.2372907
0.134,0.8017528,12.8335787,102.4965966,12.864917,102.7468829,0.056064,0,0.056064,0,0.8974112,7.1672602,33,-106.9999994,9.7913929,28.2090046,0,0,0,29460.3291805,7907.3040987,20.0545413,0.1115007,NaN,170.566165,NaN,0.0452879,2618994.3761884,3315.7670684,1.0486339,0.3798007,0.4373716,0.2963144,0.0128954,0.0705909,NaN,NaN,NaN,NaN,NaN,NaN,NaN,NaN,0.0015752,15.748,194.778355,86,0,7.1871416,5.9727886,857.3883161,334.9184099,0.002,0.2389756
0.136,0.827625,13.0386747,102.5536305,13.0705138,102.804056,0.0578732,0,0.0578732,0,0.911753,7.1712484,33,-106.9999994,9.7913929,27.8687412,0,0,0,29457.0947224,7904.0696407,20.0523647,0.1114968,NaN,170.5574413,NaN,0.045841,2650972.5983567,3317.118711,1.0799455,0.379153,0.439629,0.2956628,0.0128954,0.0705948,NaN,NaN,NaN,NaN,NaN,NaN,NaN,NaN,0.0016003,15.748,194.778355,86,0,7.1942411,5.9726204,857.3855641,334.918308,0.002,0.2406919
0.138,0.8539076,13.2438847,102.6106651,13.276225,102.8612299,0.059711,0,0.059711,0,0.9261026,7.1752367,33,-106.9999994,9.7913928,27.536407,0,0,0,29453.8602644,7900.8351826,20.0501876,0.1114929,NaN,170.5487157,NaN,0.046396,2683059.3658073,3318.4703536,1.1116036,0.3785131,0.4417573,0.2950189,0.0128955,0.0705987,NaN,NaN,NaN,NaN,NaN,NaN,NaN,NaN,0.0016255,15.748,194.778355,86,0,7.2013406,5.9724496,857.3827684,334.9182045,0.002,0.2501134
0.14,0.8806006,13.4492089,102.6677007,13.4820505,102.9184047,0.0615776,0,0.0615776,0,0.9404603,7.179225,33,-106.9999993,9.7913927,27.2117491,0,0,0,29450.6258063,7897.6007245,20.0480101,0.111489,NaN,170.5399882,NaN,0.0469527,2715251.5946912,3319.8219962,1.1436053,0.377881,0.4437615,0.2943826,0.0128957,0.0706027,NaN,NaN,NaN,NaN,NaN,NaN,NaN,NaN,0.0016507,15.748,194.778355,86,0,7.20844,5.9722761,857.379929,334.9180993,0.002,0.2522112
0.142,0.9077045,13.6546471,102.7247372,13.6879904,102.9755805,0.0634729,0,0.0634729,0,0.9548259,7.1832134,33,-106.9999993,9.7913926,26.8945244,0,0,0,29447.3913482,7894.3662664,20.0458322,0.1114852,NaN,170.5312588,NaN,0.0475113,2747546.3335657,3321.1736388,1.1759475,0.3772565,0.4456467,0.2937539,0.0128959,0.0706067,NaN,NaN,NaN,NaN,NaN,NaN,NaN,NaN,0.0016759,15.748,194.778355,86,0,7.2155395,5.9720999,857.3770459,334.9179926,0.002,0.2540604
0.144,0.9352193,13.8601994,102.7817748,13.8940446,103.0327574,0.0653969,0,0.0653969,0,0.9691996,7.1872018,33,-106.9999993,9.7913925,26.5844988,0,0,0,29444.1568901,7891.1318083,20.0436537,0.1114813,NaN,170.5225274,NaN,0.0480716,2779940.7568337,3322.5252814,1.2086273,0.3766394,0.4474179,0.2931325,0.0128962,0.0706108,NaN,NaN,NaN,NaN,NaN,NaN,NaN,NaN,0.0017012,15.748,194.778355,86,0,7.222639,5.9719211,857.3741191,334.9178842,0.002,0.2558346
0.146,0.9631454,14.0658658,102.8388136,14.1002132,103.0899355,0.0673497,0,0.0673497,0,0.9835812,7.1911904,33,-106.9999993,9.7913925,26.2814473,0,0,0,29440.922432,7887.8973502,20.0414749,0.1114774,NaN,170.5137942,NaN,0.0486336,2812432.1585344,3323.876924,1.2416418,0.3760298,0.4490797,0.2925184,0.0128965,0.0706149,NaN,NaN,NaN,NaN,NaN,NaN,NaN,NaN,0.0017264,15.748,194.778355,86,0,7.2297385,5.9717396,857.3711486,334.9177742,0.002,0.2573892
0.148,0.9914829,14.2716463,102.8958537,14.3064962,103.1471149,0.0693312,0,0.0693312,0,0.9979707,7.195179,33,-106.9999993,9.7913924,25.9851532,0,0,0,29437.6879739,7884.6628922,20.0392956,0.1114735,NaN,170.505059,NaN,0.0491972,2845017.9464687,3325.2285665,1.2749883,0.3754275,0.4506368,0.2919114,0.012897,0.0706191,NaN,NaN,NaN,NaN,NaN,NaN,NaN,NaN,0.0017517,15.748,194.778355,86,0,7.2368379,5.9715554,857.3681343,334.9176625,0.002,0.2590684
0.15,1.0202321,14.4775408,102.9528952,14.5128935,103.2042957,0.0713416,0,0.0713416,0,1.0123683,7.1991677,33,-106.9999992,9.7913923,25.6954079,0,0,0,29434.4535159,7881.4284341,20.0371158,0.1114696,NaN,170.4963219,NaN,0.0497624,2877695.6366395,3326.5802091,1.3086644,0.3748324,0.4520935,0.2913116,0.0128974,0.0706234,NaN,NaN,NaN,NaN,NaN,NaN,NaN,NaN,0.0017769,15.748,194.778355,86,0,7.2439374,5.9713685,857.3650762,334.9175493,0.002,0.2615883
0.152,1.0493932,14.6835495,103.0099454,14.7194052,103.2614852,0.0733807,0,0.0733807,0,1.0267738,7.2031571,33,-106.9999992,9.7913922,25.3459205,0,0,0,29431.2190578,7878.193976,20.0349356,0.1114657,NaN,170.4875829,NaN,0.0502965,2908573.4071071,3327.9318517,1.3424514,0.374278,0.4539702,0.2907526,0.0128979,0.0706275,NaN,NaN,NaN,NaN,NaN,NaN,NaN,NaN,0.0018022,15.748,194.778355,86,0,7.2287312,5.9711789,857.3619743,334.9174344,0.002,0.264421
0.154,1.0789664,14.8896722,103.0669992,14.9260313,103.3186783,0.0754487,0,0.0754487,0,1.0411873,7.2071467,33,-106.9999992,9.7913921,25.003627,0,0,0,29427.9845997,7874.9595179,20.0327549,0.1114619,NaN,170.478842,NaN,0.0508327,2939574.769951,3329.2834943,1.3765039,0.373729,0.4557183,0.2901988,0.0128985,0.0706316,NaN,NaN,NaN,NaN,NaN,NaN,NaN,NaN,0.0018275,15.748,194.778355,86,0,7.213525,5.9709867,857.3588285,334.917318,0.002,0.2669273
0.156,1.108952,15.0959091,103.1240567,15.1327718,103.3758751,0.0775455,0,0.0775455,0,1.0556088,7.2111365,33,-106.9999992,9.791392,24.6683322,0,0,0,29424.7501416,7871.7250598,20.0305738,0.111458,NaN,170.4700991,NaN,0.0513711,2970696.5521374,3330.6351369,1.4108175,0.3731853,0.4573424,0.2896503,0.0128991,0.0706358,NaN,NaN,NaN,NaN,NaN,NaN,NaN,NaN,0.0018528,15.748,194.778355,86,0,7.1983188,5.9707918,857.3556389,334.9171998,0.002,0.2690081
0.158,1.1393501,15.3022601,103.181118,15.3396267,103.4330758,0.0796711,0,0.0796711,0,1.0700383,7.2151266,33,-106.9999991,9.7913919,24.339847,0,0,0,29421.5156835,7868.4906018,20.0283922,0.1114541,NaN,170.4613543,NaN,0.0519114,3001935.6977883,3331.9867795,1.4453879,0.3726469,0.4588471,0.289107,0.0128998,0.0706401,NaN,NaN,NaN,NaN,NaN,NaN,NaN,NaN,0.0018782,15.748,194.778355,86,0,7.1831126,5.9705942,857.3524054,334.9170801,0.002,0.2709021
0.16,1.1701611,15.5087252,103.2381833,15.546596,103.4902804,0.0818256,0,0.0818256,0,1.0844757,7.219117,33,-106.9999991,9.7913918,24.0179881,0,0,0,29418.2812254,7865.2561437,20.0262102,0.1114502,NaN,170.4526076,NaN,0.0524538,3033289.2633471,3333.3384221,1.4802107,0.3721138,0.4602369,0.2885688,0.0129006,0.0706444,NaN,NaN,NaN,NaN,NaN,NaN,NaN,NaN,0.0019035,15.748,194.778355,86,0,7.1679063,5.970394,857.349128,334.9169587,0.002,0.2728962
0.162,1.2013852,15.7153045,103.2952527,15.7536797,103.5474892,0.084009,0,0.084009,0,1.0989211,7.2231077,33,-106.9999991,9.7913917,23.7025778,0,0,0,29415.0467674,7862.0216856,20.0240278,0.1114463,NaN,170.443859,NaN,0.052998,3064754.4129689,3334.6900646,1.515282,0.3715858,0.461516,0.2880357,0.0129014,0.0706488,NaN,NaN,NaN,NaN,NaN,NaN,NaN,NaN,0.0019289,15.748,194.778355,86,0,7.1527001,5.970191,857.3458067,334.9168357,0.002,0.274576
0.164,1.2330224,15.9219979,103.3523264,15.9608778,103.6047022,0.0862213,0,0.0862213,0,1.1133746,7.2270987,33,-106.9999991,9.7913916,23.3934437,0,0,0,29411.8123093,7858.7872275,20.0218448,0.1114424,NaN,170.4351085,NaN,0.0535442,3096328.4141033,3336.0417072,1.5505978,0.3710631,0.4626887,0.2875077,0.0129022,0.0706532,NaN,NaN,NaN,NaN,NaN,NaN,NaN,NaN,0.0019542,15.748,194.778355,86,0,7.1374939,5.9699854,857.3424414,334.9167111,0.002,0.2763024
0.166,1.2650732,16.1288055,103.4094045,16.1681904,103.6619197,0.0884625,0,0.0884625,0,1.1278359,7.23109,33,-106.9999991,9.7913915,23.0904188,0,0,0,29408.5778512,7855.5527694,20.0196615,0.1114386,NaN,170.426356,NaN,0.0540922,3128008.6332632,3337.3933498,1.5861542,0.3705455,0.463759,0.2869846,0.0129031,0.0706577,NaN,NaN,NaN,NaN,NaN,NaN,NaN,NaN,0.0019796,15.748,194.778355,86,0,7.1222877,5.969777,857.3390321,334.9165849,0.002,0.2785499
0.168,1.2975378,16.3357272,103.466487,16.3756174,103.7191417,0.0907327,0,0.0907327,0,1.1423053,7.2350816,33,-106.999999,9.7913914,22.7933412,0,0,0,29405.3433931,7852.3183113,20.0174777,0.1114347,NaN,170.4176016,NaN,0.054642,3159792.5319728,3338.7449924,1.6219476,0.3700329,0.464731,0.2864666,0.0129041,0.0706623,NaN,NaN,NaN,NaN,NaN,NaN,NaN,NaN,0.002005,15.748,194.778355,86,0,7.1070815,5.969566,857.3355788,334.916457,0.002,0.2805349
0.17,1.3304163,16.5427631,103.5235743,16.5831589,103.7763683,0.0930318,0,0.0930318,0,1.1567827,7.2390735,33,-106.999999,9.7913913,22.5020541,0,0,0,29402.108935,7849.0838533,20.0152934,0.1114308,NaN,170.4088453,NaN,0.0551935,3191677.6628876,3340.096635,1.6579744,0.3695254,0.4656084,0.2859534,0.0129051,0.0706669,NaN,NaN,NaN,NaN,NaN,NaN,NaN,NaN,0.0020304,15.748,194.778355,86,0,7.0918753,5.9693523,857.3320815,334.9163275,0.002,0.2822897
0.172,1.3637089,16.7499132,103.5806663,16.7908148,103.8335997,0.0953598,0,0.0953598,0,1.171268,7.2430658,33,-106.999999,9.7913912,22.2164052,0,0,0,29398.874477,7845.8493952,20.0131087,0.1114269,NaN,170.400087,NaN,0.0557468,3223661.6660811,3341.4482776,1.6942311,0.3690229,0.466395,0.2854451,0.0129062,0.0706716,NaN,NaN,NaN,NaN,NaN,NaN,NaN,NaN,0.0020559,15.748,194.778355,86,0,7.076669,5.9691359,857.3285401,334.9161964,0.002,0.2840413
0.174,1.397416,16.9571775,103.6377631,16.9985852,103.890836,0.0977168,0,0.0977168,0,1.1857614,7.2470584,33,-106.999999,9.7913911,21.9362473,0,0,0,29395.6400189,7842.6149371,20.0109235,0.111423,NaN,170.3913268,NaN,0.0563018,3255742.2654901,3342.7999202,1.7307145,0.3685252,0.4670943,0.2849416,0.0129073,0.0706763,NaN,NaN,NaN,NaN,NaN,NaN,NaN,NaN,0.0020813,15.748,194.778355,86,0,7.0614628,5.9689168,857.3249546,334.9160636,0.002,0.2857849
0.176,1.4315378,17.164556,103.694865,17.2064701,103.9480773,0.1001029,0,0.1001029,0,1.2002627,7.2510513,33,-106.9999989,9.791391,21.6614374,0,0,0,29392.4055608,7839.380479,20.0087379,0.1114191,NaN,170.3825647,NaN,0.0568584,3287917.2655128,3344.1515627,1.7674212,0.3680325,0.4677099,0.2844429,0.0129085,0.0706811,NaN,NaN,NaN,NaN,NaN,NaN,NaN,NaN,0.0021067,15.748,194.778355,86,0,7.0462566,5.968695,857.3213251,334.9159292,0.002,0.2873914
0.178,1.4660744,17.3720488,103.7519719,17.4144695,104.0053237,0.1025179,0,0.1025179,0,1.214772,7.2550446,33,-106.9999989,9.7913909,21.391837,0,0,0,29389.1711027,7836.1460209,20.0065518,0.1114153,NaN,170.3738007,NaN,0.0574165,3320184.5477541,3345.5032053,1.8043481,0.3675446,0.468245,0.2839488,0.0129097,0.070686,NaN,NaN,NaN,NaN,NaN,NaN,NaN,NaN,0.0021322,15.748,194.778355,86,0,7.0310504,5.9684705,857.3176514,334.9157931,0.002,0.2890583
0.18,1.5010261,17.5796557,103.8090841,17.6225834,104.0625753,0.104962,0,0.104962,0,1.2292893,7.2590383,33,-106.9999989,9.7913908,21.1273118,0,0,0,29385.9366446,7832.9115628,20.0043653,0.1114114,NaN,170.3650347,NaN,0.0579763,3352542.0679109,3346.8548479,1.8414923,0.3670614,0.468703,0.2834595,0.012911,0.0706909,NaN,NaN,NaN,NaN,NaN,NaN,NaN,NaN,0.0021577,15.748,194.778355,86,0,7.0158442,5.9682433,857.3139335,334.9156555,0.002,0.2907458
0.182,1.5363931,17.7873769,103.8662015,17.8308118,104.1198322,0.1074351,0,0.1074351,0,1.2438146,7.2630323,33,-106.9999988,9.7913907,20.8677317,0,0,0,29382.7021865,7829.6771048,20.0021783,0.1114075,NaN,170.3562668,NaN,0.0585376,3384987.8527927,3348.2064905,1.8788507,0.366583,0.469087,0.2829747,0.0129124,0.0706959,NaN,NaN,NaN,NaN,NaN,NaN,NaN,NaN,0.0021832,15.748,194.778355,86,0,7.000638,5.9680134,857.3101715,334.9155161,0.002,0.292545
0.184,1.5721757,17.9952123,103.9233243,18.0391547,104.1770945,0.1099372,0,0.1099372,0,1.2583478,7.2670268,33,-106.9999988,9.7913906,20.6129705,0,0,0,29379.4677285,7826.4426467,19.9999909,0.1114036,NaN,170.347497,NaN,0.0591004,3417519.9974708,3349.5581331,1.9164206,0.3661092,0.4693999,0.2824944,0.0129138,0.070701,NaN,NaN,NaN,NaN,NaN,NaN,NaN,NaN,0.0022087,15.748,194.778355,86,0,6.9854317,5.9677809,857.3063652,334.9153752,0.002,0.2945306
0.186,1.608374,18.2031619,103.9804527,18.2476122,104.2343623,0.1124685,0,0.1124685,0,1.2728891,7.2710216,33,-106.9999988,9.7913905,20.3629058,0,0,0,29376.2332704,7823.2081886,19.997803,0.1113997,NaN,170.3387252,NaN,0.0596646,3450136.6625511,3350.9097757,1.9541993,0.36564,0.4696449,0.2820187,0.0129152,0.0707061,NaN,NaN,NaN,NaN,NaN,NaN,NaN,NaN,0.0022342,15.748,194.778355,86,0,6.9702255,5.9675456,857.3025147,334.9152326,0.002,0.2969995
0.188,1.6449884,18.4112259,104.0375866,18.4561842,104.2916357,0.1150288,0,0.1150288,0,1.2874383,7.2750168,33,-106.9999988,9.7913904,20.1174191,0,0,0,29372.9988123,7819.9737305,19.9956147,0.1113958,NaN,170.3299516,NaN,0.0602303,3482836.0715651,3352.2614183,1.9921841,0.3651754,0.4698245,0.2815474,0.0129168,0.0707113,NaN,NaN,NaN,NaN,NaN,NaN,NaN,NaN,0.0022598,15.748,194.778355,86,0,6.9550193,5.9673076,857.29862,334.9150884,0.002,0.2989222
0.19,1.6820191,18.6194041,104.0947261,18.6648708,104.3489149,0.1176182,0,0.1176182,0,1.3019956,7.2790123,33,-106.9999987,9.7913903,19.8763952,0,0,0,29369.7643542,7816.7392724,19.9934259,0.111392,NaN,170.3211759,NaN,0.0607974,3515616.5084736,3353.6130608,2.0303724,0.3647152,0.4699417,0.2810804,0.0129183,0.0707165,NaN,NaN,NaN,NaN,NaN,NaN,NaN,NaN,0.0022853,15.748,194.778355,86,0,6.9398131,5.9670669,857.294681,334.9149425,0.002,0.3006715
0.192,1.7194661,18.8276966,104.1518715,18.8736719,104.4061997,0.1202368,0,0.1202368,0,1.3165608,7.2830083,33,-106.9999987,9.7913902,19.6397227,0,0,0,29366.5298961,7813.5048144,19.9912367,0.1113881,NaN,170.3123984,NaN,0.0613659,3548476.3152789,3354.9647034,2.0687618,0.3642595,0.469999,0.2806178,0.0129199,0.0707218,NaN,NaN,NaN,NaN,NaN,NaN,NaN,NaN,0.0023109,15.748,194.778355,86,0,6.9246069,5.9668235,857.2906977,334.914795,0.002,0.3025653
0.194,1.7573299,19.0361034,104.2090226,19.0825876,104.4634905,0.1228845,0,0.1228845,0,1.331134,7.2870047,33,-106.9999987,9.79139,19.4072935,0,0,0,29363.295438,7810.2703563,19.989047,0.1113842,NaN,170.3036189,NaN,0.0619357,3581413.8897403,3356.316346,2.1073498,0.3638082,0.4699988,0.2801595,0.0129216,0.0707271,NaN,NaN,NaN,NaN,NaN,NaN,NaN,NaN,0.0023365,15.748,194.778355,86,0,6.9094007,5.9665774,857.2866701,334.9146459,0.002,0.3042991
0.196,1.7956107,19.2446245,104.2661797,19.291618,104.5207871,0.1255613,0,0.1255613,0,1.3457152,7.2910015,33,-106.9999987,9.7913899,19.1790025,0,0,0,29360.06098,7807.0358982,19.9868568,0.1113803,NaN,170.2948375,NaN,0.0625069,3614427.6831876,3357.6679886,2.1461343,0.3633613,0.4699438,0.2797054,0.0129234,0.0707326,NaN,NaN,NaN,NaN,NaN,NaN,NaN,NaN,0.002362,15.748,194.778355,86,0,6.8941945,5.9663285,857.2825981,334.9144951,0.002,0.3060179
0.198,1.8343085,19.45326,104.3233428,19.5007629,104.5780898,0.1282673,0,0.1282673,0,1.3603045,7.2949988,33,-106.9999986,9.7913898,18.9547482,0,0,0,29356.8265219,7803.8014401,19.9846662,0.1113764,NaN,170.2860541,NaN,0.0630793,3647516.19843,3359.0196312,2.185113,0.3629186,0.4698362,0.2792554,0.0129251,0.0707381,NaN,NaN,NaN,NaN,NaN,NaN,NaN,NaN,0.0023877,15.748,194.778355,86,0,6.8789882,5.966077,857.2784818,334.9143427,0.002,0.3076475
0.2,1.8734238,19.6620098,104.380512,19.7100224,104.6353986,0.1310026,0,0.1310026,0,1.3749017,7.2989964,33,-106.9999986,9.7913897,18.7344316,0,0,0,29353.5920638,7800.566982,19.9824752,0.1113726,NaN,170.2772688,NaN,0.0636531,3680677.9877539,3360.3712738,2.2242836,0.3624802,0.4696783,0.2788096,0.012927,0.0707436,NaN,NaN,NaN,NaN,NaN,NaN,NaN,NaN,0.0024133,15.748,194.778355,86,0,6.863782,5.9658227,857.274321,334.9141886,0.002,0.3095627
0.202,1.9129567,19.8708739,104.4376404,19.9193965,104.6926664,0.133767,0,0.133767,0,1.3895069,7.3029912,33,-106.9999986,9.7913896,18.5778818,0,0,0,29350.3576057,7797.3325239,19.9802837,0.1113687,NaN,170.2684816,NaN,0.0642559,3715524.7388336,3361.7229163,2.2650255,0.3620249,0.4693509,0.2783465,0.0129289,0.0707495,NaN,NaN,NaN,NaN,NaN,NaN,NaN,NaN,0.0024389,15.748,194.778355,86,0,6.8729411,5.9655658,857.2701159,334.9140329,0.002,0.3113037
0.204,1.9529074,20.0798522,104.4947715,20.1288852,104.7499371,0.1365606,0,0.1365606,0,1.40412,7.3069862,33,-106.9999985,9.7913895,18.4241479,0,0,0,29347.1231476,7794.0980659,19.9780917,0.1113648,NaN,170.2596924,NaN,0.0648596,3750417.1184773,3363.0745589,2.3060543,0.3615747,0.4690014,0.2778882,0.012931,0.0707554,NaN,NaN,NaN,NaN,NaN,NaN,NaN,NaN,0.0024646,15.748,194.778355,86,0,6.8821001,5.9653061,857.2658663,334.9138755,0.002,0.3131187
0.206,1.9932762,20.2889448,104.5519056,20.3384884,104.8072107,0.1393835,0,0.1393835,0,1.4187412,7.3109814,33,-106.9999985,9.7913893,18.2731563,0,0,0,29343.8886896,7790.8636078,19.9758993,0.1113609,NaN,170.2509013,NaN,0.0654641,3785354.4200662,3364.4262015,2.3473698,0.3611292,0.468631,0.2774347,0.0129331,0.0707614,NaN,NaN,NaN,NaN,NaN,NaN,NaN,NaN,0.0024902,15.748,194.778355,86,0,6.8912591,5.9650437,857.2615722,334.9137165,0.002,0.3147613
0.208,2.0340633,20.4981517,104.6090425,20.5482061,104.8644871,0.1422356,0,0.1422356,0,1.4333704,7.3149768,33,-106.9999985,9.7913892,18.1248362,0,0,0,29340.6542315,7787.6291497,19.9737065,0.111357,NaN,170.2421083,NaN,0.0660693,3820335.9613652,3365.7778441,2.3889712,0.3606886,0.4682408,0.2769858,0.0129352,0.0707675,NaN,NaN,NaN,NaN,NaN,NaN,NaN,NaN,0.0025159,15.748,194.778355,86,0,6.9004182,5.9647786,857.2572336,334.9135558,0.002,0.3164053
0.21,2.0752689,20.7074729,104.6661823,20.7580385,104.9217665,0.1451169,0,0.1451169,0,1.4480076,7.3189724,33,-106.9999984,9.7913891,17.9791188,0,0,0,29337.4197734,7784.3946916,19.9715132,0.1113531,NaN,170.2333133,NaN,0.0666753,3855361.0835395,3367.1294867,2.4308581,0.3602526,0.4678319,0.2765415,0.0129374,0.0707737,NaN,NaN,NaN,NaN,NaN,NaN,NaN,NaN,0.0025416,15.748,194.778355,86,0,6.9095772,5.9645108,857.2528505,334.9133935,0.002,0.3179551
0.212,2.1168933,20.9169084,104.7233251,20.9679853,104.9790487,0.1480276,0,0.1480276,0,1.4626527,7.3229683,33,-106.9999984,9.791389,17.8359379,0,0,0,29334.1853153,7781.1602335,19.9693194,0.1113493,NaN,170.2245164,NaN,0.067282,3890429.150177,3368.4811293,2.4730301,0.3598213,0.4674052,0.2761017,0.0129397,0.0707799,NaN,NaN,NaN,NaN,NaN,NaN,NaN,NaN,0.0025673,15.748,194.778355,86,0,6.9187362,5.9642402,857.2484229,334.9132296,0.002,0.3195614
0.214,2.1589367,21.1264582,104.7804707,21.1780468,105.0363339,0.1509676,0,0.1509676,0,1.4773059,7.3269643,33,-106.9999984,9.7913888,17.6952292,0,0,0,29330.9508572,7777.9257754,19.9671252,0.1113454,NaN,170.2157175,NaN,0.0678895,3925539.5463573,3369.8327719,2.5154866,0.3593945,0.4669617,0.2756663,0.012942,0.0707861,NaN,NaN,NaN,NaN,NaN,NaN,NaN,NaN,0.002593,15.748,194.778355,86,0,6.9278953,5.9639669,857.2439507,334.9130639,0.002,0.3211294
0.216,2.2013992,21.3361222,104.8376193,21.3882228,105.0936221,0.1539368,0,0.1539368,0,1.491967,7.3309605,33,-106.9999983,9.7913887,17.5569306,0,0,0,29327.7163991,7774.6913174,19.9649305,0.1113415,NaN,170.2069167,NaN,0.0684977,3960691.6777659,3371.1844144,2.5582273,0.3589721,0.4665024,0.2752353,0.0129444,0.0707925,NaN,NaN,NaN,NaN,NaN,NaN,NaN,NaN,0.0026188,15.748,194.778355,86,0,6.9370543,5.9636909,857.2394339,334.9128967,0.002,0.3228529
0.218,2.2442813,21.5459006,104.8947708,21.5985135,105.1509132,0.1569354,0,0.1569354,0,1.5066361,7.3349569,33,-106.9999983,9.7913886,17.4209821,0,0,0,29324.4819411,7771.4568593,19.9627354,0.1113376,NaN,170.198114,NaN,0.0691066,3995884.9698512,3372.536057,2.6012517,0.3585541,0.4660281,0.2748085,0.0129468,0.0707989,NaN,NaN,NaN,NaN,NaN,NaN,NaN,NaN,0.0026445,15.748,194.778355,86,0,6.9462134,5.9634122,857.2348724,334.9127278,0.002,0.3245389
0.22,2.287583,21.7557933,104.9519253,21.8089187,105.2082072,0.1599634,0,0.1599634,0,1.5213133,7.3389535,33,-106.9999983,9.7913884,17.2873256,0,0,0,29321.247483,7768.2224012,19.9605398,0.1113337,NaN,170.1893093,NaN,0.0697163,4031118.8670213,3373.8876996,2.6445595,0.3581404,0.4655395,0.2743859,0.0129493,0.0708053,NaN,NaN,NaN,NaN,NaN,NaN,NaN,NaN,0.0026703,15.748,194.778355,86,0,6.9553724,5.9631307,857.2302664,334.9125572,0.002,0.3263213
0.222,2.3313045,21.9658003,105.0090828,22.0194385,105.2655043,0.1630207,0,0.1630207,0,1.5359984,7.3429504,33,-106.9999983,9.7913883,17.1559046,0,0,0,29318.0130249,7764.9879431,19.9583437,0.1113298,NaN,170.1805026,NaN,0.0703266,4066392.8318791,3375.2393422,2.6881504,0.357731,0.4650376,0.2739674,0.0129518,0.0708118,NaN,NaN,NaN,NaN,NaN,NaN,NaN,NaN,0.002696,15.748,194.778355,86,0,6.9645314,5.9628465,857.2256157,334.912385,0.002,0.3280957
0.224,2.3754463,22.1759216,105.0662433,22.2300729,105.3228044,0.1661074,0,0.1661074,0,1.5506915,7.3469474,33,-106.9999982,9.7913882,17.0266647,0,0,0,29314.7785668,7761.753485,19.9561472,0.111326,NaN,170.1716941,NaN,0.0709376,4101706.3444929,3376.5909848,2.7320239,0.3573258,0.4645231,0.273553,0.0129544,0.0708184,NaN,NaN,NaN,NaN,NaN,NaN,NaN,NaN,0.0027218,15.748,194.778355,86,0,6.9736905,5.9625596,857.2209202,334.9122111,0.002,0.3300498
0.226,2.4200083,22.3861572,105.123408,22.4408219,105.3801086,0.1692235,0,0.1692235,0,1.5653926,7.3509448,33,-106.9999982,9.791388,16.8995531,0,0,0,29311.5441087,7758.519027,19.9539503,0.1113221,NaN,170.1628836,NaN,0.0715493,4137058.9017558,3377.9426274,2.7761445,0.3569246,0.4639908,0.2731425,0.012957,0.0708251,NaN,NaN,NaN,NaN,NaN,NaN,NaN,NaN,0.0027476,15.748,194.778355,86,0,6.9828495,5.9622699,857.2161801,334.9120356,0.002,0.3316746
0.228,2.464991,22.5965072,105.1805794,22.6516856,105.4374196,0.172369,0,0.172369,0,1.5801017,7.3549426,33,-106.9999982,9.7913879,16.7745186,0,0,0,29308.3096507,7755.2845689,19.9517529,0.1113182,NaN,170.1540711,NaN,0.0721617,4172450.017606,3379.29427,2.8204393,0.3565275,0.4634298,0.272736,0.0129597,0.0708318,NaN,NaN,NaN,NaN,NaN,NaN,NaN,NaN,0.0027735,15.748,194.778355,86,0,6.9920085,5.9619776,857.2113953,334.9118584,0.002,0.3333075
0.23,2.5103945,22.8069716,105.2377574,22.8626639,105.4947373,0.1755439,0,0.1755439,0,1.5948188,7.3589409,33,-106.9999981,9.7913878,16.6515116,0,0,0,29305.0751926,7752.0501108,19.949555,0.1113143,NaN,170.1452567,NaN,0.0727748,4207879.2216462,3380.6459125,2.8649094,0.3561344,0.4628418,0.2723333,0.0129625,0.0708386,NaN,NaN,NaN,NaN,NaN,NaN,NaN,NaN,0.0027993,15.748,194.778355,86,0,7.0011676,5.9616824,857.2065656,334.9116796,0.002,0.3349209
0.232,2.556219,23.0175503,105.294942,23.0737568,105.5520615,0.1787482,0,0.1787482,0,1.6095439,7.3629396,33,-106.9999981,9.7913876,16.530484,0,0,0,29301.8407345,7748.8156527,19.9473567,0.1113104,NaN,170.1364403,NaN,0.0733885,4243346.0583515,3381.9975551,2.9095584,0.3557451,0.4622289,0.2719345,0.0129653,0.0708454,NaN,NaN,NaN,NaN,NaN,NaN,NaN,NaN,0.0028251,15.748,194.778355,86,0,7.0103266,5.9613846,857.2016912,334.9114991,0.002,0.3366335
0.234,2.6024648,23.2282434,105.352133,23.2849644,105.6093921,0.1819821,0,0.1819821,0,1.624277,7.3669388,33,-106.999998,9.7913875,16.4113894,0,0,0,29298.6062764,7745.5811946,19.9451579,0.1113065,NaN,170.127622,NaN,0.0740028,4278850.0864597,3383.3491977,2.9543897,0.3553597,0.4615931,0.2715393,0.0129681,0.0708523,NaN,NaN,NaN,NaN,NaN,NaN,NaN,NaN,0.002851,15.748,194.778355,86,0,7.0194856,5.961084,857.196772,334.9113169,0.002,0.3382613
0.236,2.6491321,23.4390508,105.4093302,23.4962866,105.6667291,0.1852454,0,0.1852454,0,1.6390181,7.3709384,33,-106.999998,9.7913873,16.2941826,0,0,0,29295.3718183,7742.3467365,19.9429587,0.1113027,NaN,170.1188018,NaN,0.0746178,4314390.8784173,3384.7008403,2.9994065,0.3549781,0.4609361,0.2711478,0.012971,0.0708593,NaN,NaN,NaN,NaN,NaN,NaN,NaN,NaN,0.0028769,15.748,194.778355,86,0,7.0286447,5.9607806,857.1918079,334.9111331,0.002,0.3398941
0.238,2.6962211,23.6499727,105.4665337,23.7077236,105.7240723,0.1885381,0,0.1885381,0,1.6537672,7.3749385,33,-106.999998,9.7913872,16.1788196,0,0,0,29292.1373602,7739.1122785,19.940759,0.1112988,NaN,170.1099796,NaN,0.0752335,4349968.0198558,3386.0524829,3.0446122,0.3546003,0.4602597,0.27076,0.012974,0.0708663,NaN,NaN,NaN,NaN,NaN,NaN,NaN,NaN,0.0029028,15.748,194.778355,86,0,7.0378037,5.9604746,857.186799,334.9109476,0.002,0.3414731
0.24,2.7437321,23.861009,105.5237433,23.9192752,105.7814216,0.1918604,0,0.1918604,0,1.6685243,7.378939,33,-106.9999979,9.791387,16.0652582,0,0,0,29288.9029022,7735.8778204,19.9385589,0.1112949,NaN,170.1011555,NaN,0.0758498,4385581.1090912,3387.4041255,3.0900097,0.3542261,0.4595654,0.2703757,0.012977,0.0708734,NaN,NaN,NaN,NaN,NaN,NaN,NaN,NaN,0.0029287,15.748,194.778355,86,0,7.0469628,5.9601657,857.1817452,334.9107604,0.002,0.3431476
0.242,2.7916652,24.0721598,105.5809589,24.1309415,105.8387769,0.1952122,0,0.1952122,0,1.6832894,7.3829399,33,-106.9999979,9.7913869,15.953457,0,0,0,29285.6684441,7732.6433623,19.9363583,0.111291,NaN,170.0923294,NaN,0.0764667,4421229.7566454,3388.7557681,3.1356021,0.3538555,0.4588547,0.2699948,0.01298,0.0708806,NaN,NaN,NaN,NaN,NaN,NaN,NaN,NaN,0.0029546,15.748,194.778355,86,0,7.0561218,5.9598542,857.1766465,334.9105716,0.002,0.345511
0.244,2.8400208,24.283425,105.6381804,24.3427226,105.8961381,0.1985936,0,0.1985936,0,1.6980625,7.3869412,33,-106.9999979,9.7913868,15.843376,0,0,0,29282.433986,7729.4089042,19.9341572,0.1112871,NaN,170.0835013,NaN,0.0770842,4456913.5847895,3390.1074106,3.1813923,0.3534884,0.4581291,0.2696174,0.0129831,0.0708878,NaN,NaN,NaN,NaN,NaN,NaN,NaN,NaN,0.0029805,15.748,194.778355,86,0,7.0652808,5.9595399,857.1715028,334.9103812,0.002,0.3472447
0.246,2.888799,24.4948046,105.6954077,24.5546184,105.9535051,0.2020045,0,0.2020045,0,1.7128436,7.3909429,33,-106.9999978,9.7913866,15.7349765,0,0,0,29279.1995279,7726.1744461,19.9319557,0.1112832,NaN,170.0746713,NaN,0.0777023,4492632.227106,3391.4590532,3.2273831,0.3531249,0.4573898,0.2692434,0.0129863,0.0708951,NaN,NaN,NaN,NaN,NaN,NaN,NaN,NaN,0.0030064,15.748,194.778355,86,0,7.0744399,5.9592228,857.1663142,334.910189,0.002,0.3488481
0.248,2.9380001,24.7062987,105.7526407,24.766629,106.0108779,0.205445,0,0.205445,0,1.7276327,7.394945,33,-106.9999978,9.7913865,15.6282208,0,0,0,29275.9650698,7722.9399881,19.9297538,0.1112794,NaN,170.0658394,NaN,0.078321,4528385.3280712,3392.8106958,3.2735774,0.3527648,0.4566382,0.2688728,0.0129895,0.0709025,NaN,NaN,NaN,NaN,NaN,NaN,NaN,NaN,0.0030324,15.748,194.778355,86,0,7.0835989,5.958903,857.1610806,334.9099952,0.002,0.3504546
0.25,2.9876243,24.9179073,105.8098794,24.9787543,106.0682563,0.208915,0,0.208915,0,1.7424298,7.3989475,33,-106.9999978,9.7913863,15.5230723,0,0,0,29272.7306117,7719.70553,19.9275513,0.1112755,NaN,170.0570055,NaN,0.0789404,4564172.5426546,3394.1623384,3.3199777,0.3524081,0.4558752,0.2685054,0.0129928,0.0709099,NaN,NaN,NaN,NaN,NaN,NaN,NaN,NaN,0.0030584,15.748,194.778355,86,0,7.0927579,5.9585804,857.155802,334.9097997,0.002,0.3520933
0.252,3.0376719,25.1296304,105.8671914,25.1909944,106.1257083,0.2124147,0,0.2124147,0,1.7572349,7.4029552,33,-106.9999977,9.7913862,15.3874818,0,0,0,29269.4961537,7716.4710719,19.9253484,0.1112716,NaN,170.0481696,NaN,0.0795446,4599088.3463598,3395.513981,3.3645959,0.3520636,0.4550121,0.2681504,0.012996,0.0709172,NaN,NaN,NaN,NaN,NaN,NaN,NaN,NaN,0.0030844,15.748,194.778355,86,0,7.086134,5.9582551,857.1504784,334.9096026,0.002,0.3537518
0.254,3.088143,25.3414682,105.9245127,25.4033495,106.1831695,0.215944,0,0.215944,0,1.7720481,7.4069635,33,-106.9999977,9.791386,15.2538718,0,0,0,29266.2616956,7713.2366138,19.9231451,0.1112677,NaN,170.0393319,NaN,0.0801497,4634048.2079264,3396.8656236,3.4093147,0.3517222,0.4541279,0.2677982,0.0129993,0.0709246,NaN,NaN,NaN,NaN,NaN,NaN,NaN,NaN,0.0031104,15.748,194.778355,86,0,7.0795102,5.9579271,857.1451097,334.9094038,0.002,0.3554485
0.256,3.1390379,25.5534206,105.981843,25.6158195,106.2406399,0.2195029,0,0.2195029,0,1.7868692,7.4109724,33,-106.9999976,9.7913858,15.122201,0,0,0,29263.0272375,7710.0021557,19.9209413,0.1112638,NaN,170.0304921,NaN,0.0807555,4669051.5920289,3398.2172662,3.4541393,0.3513837,0.4532244,0.267449,0.0130026,0.0709321,NaN,NaN,NaN,NaN,NaN,NaN,NaN,NaN,0.0031364,15.748,194.778355,86,0,7.0728863,5.9575963,857.139696,334.9092033,0.002,0.3578143
0.258,3.1903568,25.7654877,106.0391822,25.8284044,106.2981191,0.2230915,0,0.2230915,0,1.8016984,7.414982,33,-106.9999976,9.7913857,14.992429,0,0,0,29259.7927794,7706.7676976,19.9187371,0.1112599,NaN,170.0216504,NaN,0.081362,4704097.9782549,3399.5689087,3.4990747,0.3510481,0.4523033,0.2671025,0.013006,0.0709396,NaN,NaN,NaN,NaN,NaN,NaN,NaN,NaN,0.0031624,15.748,194.778355,86,0,7.0662624,5.9572627,857.1342371,334.9090012,0.002,0.3628634
0.26,3.2420999,25.9776695,106.0965302,26.0411043,106.3556071,0.2267097,0,0.2267097,0,1.8165356,7.4189921,33,-106.9999976,9.7913855,14.8645165,0,0,0,29256.5583213,7703.5332396,19.9165324,0.1112561,NaN,170.0128067,NaN,0.0819693,4739186.8605487,3400.9205513,3.5441256,0.3507155,0.4513665,0.2667589,0.0130094,0.0709471,NaN,NaN,NaN,NaN,NaN,NaN,NaN,NaN,0.0031884,15.748,194.778355,86,0,7.0596385,5.9569264,857.1287331,334.9087974,0.002,0.3646366
0.262,3.2942675,26.189966,106.1538868,26.2539192,106.4131037,0.2303576,0,0.2303576,0,1.8313808,7.4230029,33,-106.9999975,9.7913854,14.7384252,0,0,0,29253.3238633,7700.2987815,19.9143272,0.1112522,NaN,170.0039611,NaN,0.0825773,4774317.7467287,3402.2721939,3.5892968,0.3503857,0.4504153,0.266418,0.0130129,0.0709548,NaN,NaN,NaN,NaN,NaN,NaN,NaN,NaN,0.0032145,15.748,194.778355,86,0,7.0530146,5.9565873,857.123184,334.9085919,0.002,0.3663811
0.264,3.3468599,26.4023772,106.2112517,26.4668491,106.4706088,0.2340352,0,0.2340352,0,1.8462341,7.4270142,33,-106.9999975,9.7913852,14.614118,0,0,0,29250.0894052,7697.0643234,19.9121216,0.1112483,NaN,169.9951135,NaN,0.0831861,4809490.1580236,3403.6238365,3.6345929,0.3500587,0.4494513,0.2660798,0.0130165,0.0709625,NaN,NaN,NaN,NaN,NaN,NaN,NaN,NaN,0.0032406,15.748,194.778355,86,0,7.0463907,5.9562454,857.1175897,334.9083847,0.002,0.368042
0.266,3.3998772,26.6149032,106.268625,26.6798941,106.5281221,0.2377426,0,0.2377426,0,1.8610953,7.4310262,33,-106.9999975,9.791385,14.4915586,0,0,0,29246.8549471,7693.8298653,19.9099155,0.1112444,NaN,169.986264,NaN,0.0837956,4844703.6286265,3404.9754791,3.6800183,0.3497345,0.4484758,0.2657442,0.01302,0.0709702,NaN,NaN,NaN,NaN,NaN,NaN,NaN,NaN,0.0032667,15.748,194.778355,86,0,7.0397668,5.9559008,857.1119502,334.9081759,0.002,0.3697551
0.268,3.4533196,26.8275439,106.3260064,26.8930541,106.5856436,0.2414796,0,0.2414796,0,1.8759646,7.4350387,33,-106.9999974,9.7913849,14.3707118,0,0,0,29243.620489,7690.5954072,19.9077089,0.1112405,NaN,169.9774125,NaN,0.0844058,4879957.7052666,3406.3271217,3.7255772,0.349413,0.4474901,0.2654113,0.0130237,0.0709781,NaN,NaN,NaN,NaN,NaN,NaN,NaN,NaN,0.0032928,15.748,194.778355,86,0,7.0331429,5.9555534,857.1062654,334.9079654,0.002,0.3713539
0.27,3.5071874,27.0402995,106.3833958,27.1063291,106.6431732,0.2452464,0,0.2452464,0,1.8908419,7.4390517,33,-106.9999974,9.7913847,14.251543,0,0,0,29240.3860309,7687.3609491,19.9055019,0.1112366,NaN,169.9685591,NaN,0.0850167,4915251.9467965,3407.6787643,3.771274,0.3490943,0.4464954,0.265081,0.0130273,0.070986,NaN,NaN,NaN,NaN,NaN,NaN,NaN,NaN,0.0033189,15.748,194.778355,86,0,7.026519,5.9552033,857.1005354,334.9077532,0.002,0.3729217
